{"msg":"成功","code":0,"data":{"totalCount":200,"pageSize":20,"totalPage":10,"currPage":1,"list":[{"id":"423186973885145088","status":1,"top":0,"shopTime":"08:40@09:40","name":"1","phone":"13111111111","bizId":null,"bizName":null,"longitude":113.96320231406871,"latitude":22.5543893344208,"province":"广东省","city":"深圳市","district":"南山区","address":"南山","createDate":"2022-07-21 14:30:32","lastUpdateDate":null,"mediaRelationships":[{"id":"423186973927088128","targetId":"423186973885145088","mediaId":"423186931212296192","priority":0,"targetType":"OUTLET"}],"medias":[{"id":"423186931212296192","type":"IMAGE","url":"https://aihuandian-charging-console.oss-cn-shenzhen.aliyuncs.com/product/20220721/c797f798f8d549dc88a7f49e59844769.jpg"}]},{"id":"422143780061605888","status":1,"top":0,"shopTime":"00:00@23:59","name":"龙华试点-龙华2","phone":"13168099811","bizId":"422143029258186752","bizName":"龙华试点-龙华2","longitude":113.96320231406871,"latitude":22.5543893344208,"province":"广东省","city":"深圳市","district":"龙华区","address":"龙华试点-龙华2","createDate":"2022-07-18 17:25:16","lastUpdateDate":null,"mediaRelationships":[{"id":"422143780082577408","targetId":"422143780061605888","mediaId":"422143775672332288","priority":0,"targetType":"OUTLET"}],"medias":[{"id":"422143775672332288","type":"IMAGE","url":"https://aihuandian-charging-console.oss-cn-shenzhen.aliyuncs.com/product/20220718/15d16cacdaed4b319cb9ce1c5bb2f3d8.jpeg"}]},{"id":"422130745519534080","status":1,"top":0,"shopTime":"00:00@23:59","name":"森成-桃园站","phone":"13924640914","bizId":"422128334023389184","bizName":"森成-桃园站","longitude":113.96320231406871,"latitude":22.5543893344208,"province":"广东省","city":"深圳市","district":"南山区","address":"森成-桃园站","createDate":"2022-07-18 16:33:28","lastUpdateDate":null,"mediaRelationships":[{"id":"422130745536311296","targetId":"422130745519534080","mediaId":"422130730361319424","priority":0,"targetType":"OUTLET"}],"medias":[{"id":"422130730361319424","type":"IMAGE","url":"https://aihuandian-charging-console.oss-cn-shenzhen.aliyuncs.com/product/20220718/50673532d3bc41238ce308198de86b9a.jpg"}]},{"id":"421428305203720192","status":1,"top":0,"shopTime":"00:00@23:59","name":"云星出行（自费商户）","phone":"13726264315","bizId":"421424979904983040","bizName":"云星出行（自费商户）","longitude":113.96320231406871,"latitude":22.5543893344208,"province":"广东省","city":"深圳市","district":"宝安区","address":"宝安区流塘新村","createDate":"2022-07-16 18:02:13","lastUpdateDate":null,"mediaRelationships":[{"id":"421428305220497408","targetId":"421428305203720192","mediaId":"421428276080635904","priority":0,"targetType":"OUTLET"}],"medias":[{"id":"421428276080635904","type":"IMAGE","url":"https://aihuandian-charging-console.oss-cn-shenzhen.aliyuncs.com/product/20220716/48c23c1a6cf9423d89470bdea1853b5c.jpg"}]},{"id":"420942132867985408","status":1,"top":0,"shopTime":"00:00@23:59","name":"线上运营部-48·30","phone":"15994589290","bizId":"420940594606993408","bizName":"线上运营部-48·30","longitude":113.96320231406871,"latitude":22.5543893344208,"province":"广东省","city":"深圳市","district":"全部","address":"线上运营部-48·30","createDate":"2022-07-15 09:50:21","lastUpdateDate":null,"mediaRelationships":[{"id":"420942132876374016","targetId":"420942132867985408","mediaId":"420942111498006528","priority":0,"targetType":"OUTLET"}],"medias":[{"id":"420942111498006528","type":"IMAGE","url":"https://aihuandian-charging-console.oss-cn-shenzhen.aliyuncs.com/product/20220715/06f66e9d74954d04b70d20c0b351b4bf.jpg"}]},{"id":"420689427261976576","status":1,"top":0,"shopTime":"08:40@09:40","name":"线上运营部-30","phone":"13610301136","bizId":"420688059308666880","bizName":"线上运营部-卫30","longitude":113.96320231406871,"latitude":22.5543893344208,"province":"广东省","city":"深圳市","district":"全部","address":"线上运营部-30","createDate":"2022-07-14 17:06:11","lastUpdateDate":null,"mediaRelationships":[{"id":"420689427291336704","targetId":"420689427261976576","mediaId":"420689421828321280","priority":0,"targetType":"OUTLET"}],"medias":[{"id":"420689421828321280","type":"IMAGE","url":"https://aihuandian-charging-console.oss-cn-shenzhen.aliyuncs.com/product/20220714/59968012b792470fb936adb4edf73bc7.jpeg"}]},{"id":"420689192104128512","status":1,"top":0,"shopTime":"00:00@23:59","name":"线上运营部-卫50","phone":"13610301136","bizId":"420688766405406720","bizName":"线上运营部-卫50","longitude":113.96320231406871,"latitude":22.5543893344208,"province":"广东省","city":"深圳市","district":"全部","address":"线上运营部-卫50","createDate":"2022-07-14 17:05:15","lastUpdateDate":null,"mediaRelationships":[{"id":"420689192125100032","targetId":"420689192104128512","mediaId":"420689186181771264","priority":0,"targetType":"OUTLET"}],"medias":[{"id":"420689186181771264","type":"IMAGE","url":"https://aihuandian-charging-console.oss-cn-shenzhen.aliyuncs.com/product/20220714/fefc4d79858c492e9d247256494d3060.jpeg"}]},{"id":"420298839656132608","status":1,"top":0,"shopTime":"00:00@23:59","name":"摩登-科技园站","phone":"17363681427","bizId":"420298028540653568","bizName":"摩登-科技园站","longitude":113.96320231406871,"latitude":22.5543893344208,"province":"广东省","city":"深圳市","district":"南山区","address":"园西工业区","createDate":"2022-07-13 15:14:07","lastUpdateDate":null,"mediaRelationships":[{"id":"420298839681298432","targetId":"420298839656132608","mediaId":"420298823514419200","priority":0,"targetType":"OUTLET"}],"medias":[{"id":"420298823514419200","type":"IMAGE","url":"https://aihuandian-charging-console.oss-cn-shenzhen.aliyuncs.com/product/20220713/ad8e6c3836ac4b71915a9211a6186d0f.jpeg"}]},{"id":"419485106085253120","status":1,"top":0,"shopTime":"00:00@23:59","name":"壹城-科技园站","phone":"15219508079","bizId":"419484191633592320","bizName":"壹城-科技园站 ","longitude":113.96320231406871,"latitude":22.5543893344208,"province":"广东省","city":"深圳市","district":"南山区","address":"壹城-科技园站","createDate":"2022-07-11 09:20:38","lastUpdateDate":null,"mediaRelationships":[{"id":"419485106089447424","targetId":"419485106085253120","mediaId":"419485101446352896","priority":0,"targetType":"OUTLET"}],"medias":[{"id":"419485101446352896","type":"IMAGE","url":"https://aihuandian-charging-console.oss-cn-shenzhen.aliyuncs.com/product/20220711/48a439a4168543bf9ba75b396fc9258d.jpeg"}]},{"id":"419307037620850688","status":1,"top":0,"shopTime":"00:00@23:59","name":"北棠1站","phone":"13407810331","bizId":"418782251681468416","bizName":"北棠车公庙1站","longitude":113.96320231406871,"latitude":22.5543893344208,"province":"广东省","city":"深圳市","district":"南山区","address":"北棠1站","createDate":"2022-07-10 21:33:03","lastUpdateDate":null,"mediaRelationships":[{"id":"419307037641822208","targetId":"419307037620850688","mediaId":"419306988737351680","priority":0,"targetType":"OUTLET"}],"medias":[{"id":"419306988737351680","type":"IMAGE","url":"https://aihuandian-charging-console.oss-cn-shenzhen.aliyuncs.com/product/20220710/6afd9ce29c8946dbaec740ce069b8f70.jpeg"}]},{"id":"419159672403480576","status":1,"top":0,"shopTime":"00:00@00:00","name":"北棠车公庙2站","phone":"13723456641","bizId":"419159192365387776","bizName":"北棠车公庙2站","longitude":113.96320231406871,"latitude":22.5543893344208,"province":"广东省","city":"深圳市","district":"全部","address":"北棠车公庙2站","createDate":"2022-07-10 11:47:29","lastUpdateDate":null,"mediaRelationships":[{"id":"419159672407674880","targetId":"419159672403480576","mediaId":"419159663524139008","priority":0,"targetType":"OUTLET"}],"medias":[{"id":"419159663524139008","type":"IMAGE","url":"https://aihuandian-charging-console.oss-cn-shenzhen.aliyuncs.com/product/20220710/e83918684a18482082011ced4a969e1a.jpeg"}]},{"id":"418523575231139840","status":1,"top":0,"shopTime":"08:40@09:40","name":"曾林","phone":"15820493782","bizId":"418522729034502144","bizName":"曾林","longitude":113.96320231406871,"latitude":22.5543893344208,"province":"广东省","city":"深圳市","district":"龙华区","address":"上油松","createDate":"2022-07-08 17:39:51","lastUpdateDate":null,"mediaRelationships":[{"id":"418523575239528448","targetId":"418523575231139840","mediaId":"418523560122142720","priority":0,"targetType":"OUTLET"}],"medias":[{"id":"418523560122142720","type":"IMAGE","url":"https://aihuandian-charging-console.oss-cn-shenzhen.aliyuncs.com/product/20220708/fb36d8e9346c45ffb40ffce395aeb2b1.jpg"}]},{"id":"418480783117209600","status":1,"top":0,"shopTime":"00:00@23:59","name":"北棠车公庙3站(48·50)","phone":"17602090267","bizId":"418480153027891200","bizName":"北棠车公庙3站(48·50)","longitude":113.96320231406871,"latitude":22.5543893344208,"province":"广东省","city":"深圳市","district":"福田区","address":"北棠车公庙3站","createDate":"2022-07-08 14:49:49","lastUpdateDate":null,"mediaRelationships":[{"id":"418480783125598208","targetId":"418480783117209600","mediaId":"418480775885115392","priority":0,"targetType":"OUTLET"}],"medias":[{"id":"418480775885115392","type":"IMAGE","url":"https://aihuandian-charging-console.oss-cn-shenzhen.aliyuncs.com/product/20220708/7d6552e576cf45b8bffdfec63eb14759.jpeg"}]},{"id":"418419286134378496","status":1,"top":0,"shopTime":"00:00@23:59","name":"龙华-上油松村","phone":"15994589290","bizId":"418416937513996288","bizName":"线上运营-何雨霜48·50","longitude":113.96320231406871,"latitude":22.5543893344208,"province":"广东省","city":"深圳市","district":"全部","address":"龙华-上油松村","createDate":"2022-07-08 10:45:27","lastUpdateDate":null,"mediaRelationships":[{"id":"418419286155350016","targetId":"418419286134378496","mediaId":"418419223262875648","priority":0,"targetType":"OUTLET"}],"medias":[{"id":"418419223262875648","type":"IMAGE","url":"https://aihuandian-charging-console.oss-cn-shenzhen.aliyuncs.com/product/20220708/4e8fd2f962f2498a924626e30f26096f.jpg"}]},{"id":"418074414237044736","status":1,"top":0,"shopTime":"00:00@23:59","name":"博亿- 海月站","phone":"17094132002","bizId":"418073991174377472","bizName":"博亿- 海月站","longitude":113.96320231406871,"latitude":22.5543893344208,"province":"广东省","city":"深圳市","district":"南山区","address":"博亿- 海月站","createDate":"2022-07-07 11:55:03","lastUpdateDate":null,"mediaRelationships":[{"id":"418074414262210560","targetId":"418074414237044736","mediaId":"418074410213593088","priority":0,"targetType":"OUTLET"}],"medias":[{"id":"418074410213593088","type":"IMAGE","url":"https://aihuandian-charging-console.oss-cn-shenzhen.aliyuncs.com/product/20220707/00a40a13e3124bd8ad20759f72892b3e.jpeg"}]},{"id":"418067981121507328","status":1,"top":0,"shopTime":"00:00@23:59","name":"北棠- 西丽站","phone":"18948717756","bizId":"418067465058537472","bizName":"北棠- 西丽站","longitude":113.96320231406871,"latitude":22.5543893344208,"province":"广东省","city":"深圳市","district":"南山区","address":"北棠- 西丽站","createDate":"2022-07-07 11:29:29","lastUpdateDate":null,"mediaRelationships":[{"id":"418067981150867456","targetId":"418067981121507328","mediaId":"418067976142868480","priority":0,"targetType":"OUTLET"}],"medias":[{"id":"418067976142868480","type":"IMAGE","url":"https://aihuandian-charging-console.oss-cn-shenzhen.aliyuncs.com/product/20220707/4692e142f6cc4ef7b9aa666d351994e0.jpeg"}]},{"id":"417752756081057792","status":1,"top":0,"shopTime":"00:00@23:59","name":"重庆门店","phone":"18086417888","bizId":"417750262768656384","bizName":"重庆-李鑫","longitude":113.96320231406871,"latitude":22.5543893344208,"province":"重庆市","city":"市辖区","district":"全部","address":"重庆","createDate":"2022-07-06 14:36:54","lastUpdateDate":null,"mediaRelationships":[{"id":"417752756102029312","targetId":"417752756081057792","mediaId":"417752750926258176","priority":0,"targetType":"OUTLET"}],"medias":[{"id":"417752750926258176","type":"IMAGE","url":"https://aihuandian-charging-console.oss-cn-shenzhen.aliyuncs.com/product/20220706/3a15cb4bcbad4ec6876644c3ae805cac.jpeg"}]},{"id":"417680738597920768","status":1,"top":0,"shopTime":"00:00@23:59","name":"顺丰莲塘门店","phone":"13822722741","bizId":"417680295427760128","bizName":"顺丰-深圳-莲塘营业点","longitude":113.96320231406871,"latitude":22.5543893344208,"province":"广东省","city":"深圳市","district":"罗湖区","address":"莲塘营业点","createDate":"2022-07-06 09:50:44","lastUpdateDate":null,"mediaRelationships":[{"id":"417680738618892288","targetId":"417680738597920768","mediaId":"417680729475309568","priority":0,"targetType":"OUTLET"}],"medias":[{"id":"417680729475309568","type":"IMAGE","url":"https://aihuandian-charging-console.oss-cn-shenzhen.aliyuncs.com/product/20220706/029fe5b95e7247db9a9460a0de31e60e.jpeg"}]},{"id":"417678833029144576","status":1,"top":0,"shopTime":"00:00@23:59","name":"顺丰速运-深圳区","phone":"13822722740","bizId":"417678321030455296","bizName":"顺丰速运-深圳区","longitude":113.96320231406871,"latitude":22.5543893344208,"province":"广东省","city":"深圳市","district":"全部","address":"福田","createDate":"2022-07-06 09:43:09","lastUpdateDate":null,"mediaRelationships":[{"id":"417678833050116096","targetId":"417678833029144576","mediaId":"417678830982324224","priority":0,"targetType":"OUTLET"}],"medias":[{"id":"417678830982324224","type":"IMAGE","url":"https://aihuandian-charging-console.oss-cn-shenzhen.aliyuncs.com/product/20220706/f7a4035788b6432f823dc5c34c7afbe6.jpeg"}]},{"id":"417443771352276992","status":1,"top":0,"shopTime":"00:00@23:59","name":"北棠 -科技园站商户","phone":"17841122019","bizId":"417443355352817664","bizName":"北棠 -科技园站商户","longitude":113.96320231406871,"latitude":22.5543893344208,"province":"广东省","city":"深圳市","district":"南山区","address":"北棠 -科技园站商户","createDate":"2022-07-05 18:09:06","lastUpdateDate":null,"mediaRelationships":[{"id":"417443771373248512","targetId":"417443771352276992","mediaId":"417443759784386560","priority":0,"targetType":"OUTLET"}],"medias":[{"id":"417443759784386560","type":"IMAGE","url":"https://aihuandian-charging-console.oss-cn-shenzhen.aliyuncs.com/product/20220705/04b9bfea205e4be1ae2693eea6013c8f.jpg"}]}]},"ok":true}