{"msg":"success","code":0,"page":{"totalCount":5,"pageSize":10,"totalPage":1,"currPage":1,"list":[{"id":"372813398645673984","name":"超充桩测试A","number":"S1100021030576974","brandId":null,"chargingType":"SUPER","pileId":"372811106487312384","bizId":"337708617098977280","bizName":null,"pileOpGroupId":null,"pileOpGroupName":null,"pileModelId":null,"longitude":114.27025266681063,"latitude":22.73601752500923,"province":"广东省","city":"深圳市","county":"龙岗区","estate":"广东省深圳市龙岗区龙岗街道罗卜坝二区18号","enabledSlotsSeq":null,"activated":true,"showable":true,"images":null,"imageUrls":null,"createDate":"2022-03-04 14:23:56","lastUpdateDate":"2022-04-11 18:34:28","deleted":false,"pileType":null,"groupName":"龙华定价分组","enabledSlotsSeqStr":"[0]","online":true,"lastHBDate":null,"status":"WORKING","bizEntity":{"id":"337708617098977280","name":"深圳龙华试点","idsPath":"1,337703544545468416,337708617098977280","parentId":"337703544545468416","parentName":"深圳运营部","accountId":"353","walletId":"337708616922374144","country":"中国","province":"广东省","region":"龙华区","regions":null,"areaCodes":"440000,440300,440309","city":"深圳市","address":"龙华","contacts":"jok","contactPhone":"13411111112","cashWalletDto":null,"selfPickup":true,"loginPhone":null,"sysUser":null,"version":"1","createDate":"2021-11-27 17:30:03","lastUpdateDate":"2022-04-06 16:38:04","cmanufacturingCount":0,"cstoringCount":0,"ccirculatingCount":0,"bmanufacturingCount":0,"bstoringCount":0,"bcirculatingCount":0}},{"id":"372858105811701760","name":"超充桩测试B","number":"S1100021020770056","brandId":null,"chargingType":"SUPER","pileId":"372850671902203904","bizId":"337708617098977280","bizName":null,"pileOpGroupId":null,"pileOpGroupName":null,"pileModelId":null,"longitude":114.27025266681063,"latitude":22.73601752500923,"province":"广东省","city":"深圳市","county":"龙岗区","estate":"广东省深圳市龙岗区龙岗街道罗卜坝二区18号","enabledSlotsSeq":null,"activated":true,"showable":true,"images":null,"imageUrls":null,"createDate":"2022-03-04 17:21:35","lastUpdateDate":"2022-04-11 18:36:41","deleted":false,"pileType":null,"groupName":"龙华定价分组","enabledSlotsSeqStr":"[0]","online":true,"lastHBDate":null,"status":"WORKING","bizEntity":{"id":"337708617098977280","name":"深圳龙华试点","idsPath":"1,337703544545468416,337708617098977280","parentId":"337703544545468416","parentName":"深圳运营部","accountId":"353","walletId":"337708616922374144","country":"中国","province":"广东省","region":"龙华区","regions":null,"areaCodes":"440000,440300,440309","city":"深圳市","address":"龙华","contacts":"jok","contactPhone":"13411111112","cashWalletDto":null,"selfPickup":true,"loginPhone":null,"sysUser":null,"version":"1","createDate":"2021-11-27 17:30:03","lastUpdateDate":"2022-04-06 16:38:04","cmanufacturingCount":0,"cstoringCount":0,"ccirculatingCount":0,"bmanufacturingCount":0,"bstoringCount":0,"bcirculatingCount":0}},{"id":"407554428449988608","name":"万能充测试","number":"S1100021022759220","brandId":null,"chargingType":"FAST","pileId":"407551017056411648","bizId":"337703544545468416","bizName":null,"pileOpGroupId":null,"pileOpGroupName":null,"pileModelId":null,"longitude":null,"latitude":null,"province":"广东省","city":"深圳市","county":"市辖区","estate":"南山区","enabledSlotsSeq":null,"activated":true,"showable":true,"images":null,"imageUrls":null,"createDate":"2022-06-08 11:12:23","lastUpdateDate":"2022-06-08 11:12:23","deleted":false,"pileType":null,"groupName":"DEFAULT","enabledSlotsSeqStr":"[0]","online":false,"lastHBDate":null,"status":"OFFLINE","bizEntity":{"id":"337703544545468416","name":"深圳运营部","idsPath":"1,337703544545468416","parentId":"1","parentName":"爱换电科技有限公司","accountId":"352","walletId":"337703544360476672","country":"中国","province":"广东省","region":"全部","regions":null,"areaCodes":"440000,440300,","city":"深圳市","address":"南山","contacts":"john","contactPhone":"13411111111","cashWalletDto":null,"selfPickup":true,"loginPhone":null,"sysUser":null,"version":"3","createDate":"2021-11-27 17:09:54","lastUpdateDate":"2022-05-12 20:59:33","cmanufacturingCount":0,"cstoringCount":0,"ccirculatingCount":0,"bmanufacturingCount":0,"bstoringCount":0,"bcirculatingCount":0}},{"id":"412304248360308736","name":"爱换电万能充测试","number":"S1100021022750482","brandId":null,"chargingType":"FAST","pileId":"412302262283476992","bizId":"337703544545468416","bizName":null,"pileOpGroupId":null,"pileOpGroupName":null,"pileModelId":null,"longitude":null,"latitude":null,"province":"广东省","city":"深圳市","county":"南山区","estate":"光前村","enabledSlotsSeq":null,"activated":true,"showable":true,"images":null,"imageUrls":null,"createDate":"2022-06-21 13:46:28","lastUpdateDate":"2022-06-21 13:46:28","deleted":false,"pileType":null,"groupName":"DEFAULT","enabledSlotsSeqStr":"[0]","online":false,"lastHBDate":null,"status":"OFFLINE","bizEntity":{"id":"337703544545468416","name":"深圳运营部","idsPath":"1,337703544545468416","parentId":"1","parentName":"爱换电科技有限公司","accountId":"352","walletId":"337703544360476672","country":"中国","province":"广东省","region":"全部","regions":null,"areaCodes":"440000,440300,","city":"深圳市","address":"南山","contacts":"john","contactPhone":"13411111111","cashWalletDto":null,"selfPickup":true,"loginPhone":null,"sysUser":null,"version":"3","createDate":"2021-11-27 17:09:54","lastUpdateDate":"2022-05-12 20:59:33","cmanufacturingCount":0,"cstoringCount":0,"ccirculatingCount":0,"bmanufacturingCount":0,"bstoringCount":0,"bcirculatingCount":0}},{"id":"412363016515260416","name":"爱换电交流测试桩","number":"868020040197757","brandId":null,"chargingType":"NORMAL","pileId":"412327871801925632","bizId":"337703544545468416","bizName":null,"pileOpGroupId":null,"pileOpGroupName":null,"pileModelId":null,"longitude":113.95969254398345,"latitude":22.567228220721113,"province":"广东省","city":"深圳市","county":"南山区","estate":"南山睿园","enabledSlotsSeq":null,"activated":true,"showable":true,"images":null,"imageUrls":null,"createDate":"2022-06-21 17:39:59","lastUpdateDate":"2022-06-21 17:42:44","deleted":false,"pileType":null,"groupName":"DEFAULT","enabledSlotsSeqStr":"[0,1,2,3,4,5,6,7,8,9]","online":false,"lastHBDate":null,"status":"OFFLINE","bizEntity":{"id":"337703544545468416","name":"深圳运营部","idsPath":"1,337703544545468416","parentId":"1","parentName":"爱换电科技有限公司","accountId":"352","walletId":"337703544360476672","country":"中国","province":"广东省","region":"全部","regions":null,"areaCodes":"440000,440300,","city":"深圳市","address":"南山","contacts":"john","contactPhone":"13411111111","cashWalletDto":null,"selfPickup":true,"loginPhone":null,"sysUser":null,"version":"3","createDate":"2021-11-27 17:09:54","lastUpdateDate":"2022-05-12 20:59:33","cmanufacturingCount":0,"cstoringCount":0,"ccirculatingCount":0,"bmanufacturingCount":0,"bstoringCount":0,"bcirculatingCount":0}}]}}