{"msg":"成功","code":0,"data":[{"id":"339636271490412544","status":1,"top":0,"shopTime":"08:00@20:00","name":"龙华上油松村112-3","phone":"19928731407","bizId":"337703544545468416","bizName":"深圳运营部","longitude":114.03955678344147,"latitude":22.64012105261762,"province":"广东省","city":"深圳市","district":"龙华区","address":"广东省深圳市龙华区油松二路","createDate":"2021-12-03 01:09:53","lastUpdateDate":"2022-05-24 23:11:26","mediaRelationships":[{"id":"397755532045549568","targetId":"339636271490412544","mediaId":"397755503381676032","priority":0,"targetType":"OUTLET"}],"medias":[{"id":"397755503381676032","type":"IMAGE","url":"https://aihuandian-charging-console.oss-cn-shenzhen.aliyuncs.com/product/20220512/9c9b61e14dca4cf580632c624b4fa9ec.jpg"}]},{"id":"353042691526430720","status":1,"top":0,"shopTime":"00:00@22:00","name":"测试1","phone":"13518170904","bizId":"353036353786286080","bizName":"测试-商户(群组)","longitude":113.9636374452811,"latitude":22.5748116345009,"province":"北京市","city":"市辖区","district":"东城区","address":"广东省深圳市南山区南山新屋村西路","createDate":"2022-01-09 01:02:12","lastUpdateDate":null,"mediaRelationships":[{"id":"353042691539013632","targetId":"353042691526430720","mediaId":"353042682579980288","priority":0,"targetType":"OUTLET"}],"medias":[{"id":"353042682579980288","type":"IMAGE","url":"https://aihuandian-charging-console.oss-cn-shenzhen.aliyuncs.com/product/20220109/4ba58ffd03b849c6a5904d0ca5dccd8d.jpg"}]},{"id":"372553063657394176","status":1,"top":0,"shopTime":"08:00@22:00","name":"南山","phone":"17841122019","bizId":"1","bizName":"爱换电科技有限公司","longitude":113.93529908107985,"latitude":22.569160178699455,"province":"广东省","city":"深圳市","district":"南山区","address":"广东省深圳市南山区乾丰三路","createDate":"2022-03-03 21:09:27","lastUpdateDate":null,"mediaRelationships":[{"id":"372553063682560000","targetId":"372553063657394176","mediaId":"372552961450594304","priority":0,"targetType":"OUTLET"}],"medias":[{"id":"372552961450594304","type":"IMAGE","url":"https://aihuandian-charging-console.oss-cn-shenzhen.aliyuncs.com/product/20220303/2e14a49f5f644f84941d2908a55ef1c4.jpg"}]},{"id":"372751459840184320","status":1,"top":0,"shopTime":"08:00@22:00","name":"南山","phone":"17841122019","bizId":"372543405278384128","bizName":"南头南油","longitude":113.93743205532972,"latitude":22.569979837804944,"province":"广东省","city":"深圳市","district":"南山区","address":"广东省深圳市南山区乾丰二路","createDate":"2022-03-04 10:17:49","lastUpdateDate":null,"mediaRelationships":[{"id":"372751459865350144","targetId":"372751459840184320","mediaId":"372751455134175232","priority":0,"targetType":"OUTLET"}],"medias":[{"id":"372751455134175232","type":"IMAGE","url":"https://aihuandian-charging-console.oss-cn-shenzhen.aliyuncs.com/product/20220304/dcd73191aa8d40ff936236b2dca8ca3d.jpg"}]},{"id":"380785674093383680","status":1,"top":0,"shopTime":"00:00@23:59","name":"鹏兴车行","phone":"11111111111","bizId":"337703544545468416","bizName":"深圳运营部","longitude":113.91484790891042,"latitude":22.52772148797377,"province":"广东省","city":"深圳市","district":"南山区","address":"广东省深圳市南山区南新路2002-3号(南山市场附近)","createDate":"2022-03-26 14:22:55","lastUpdateDate":"2022-04-04 00:39:10","mediaRelationships":[{"id":"380785674114355200","targetId":"380785674093383680","mediaId":"380785597656387584","priority":0,"targetType":"OUTLET"}],"medias":[{"id":"380785597656387584","type":"IMAGE","url":"https://aihuandian-charging-console.oss-cn-shenzhen.aliyuncs.com/product/20220326/fd2a276d1d894111a83c0d3a638a758c.jpg"}]},{"id":"391621776645652480","status":1,"top":0,"shopTime":"00:01@23:58","name":"宝安","phone":"13726264315","bizId":"382984613500604416","bizName":"及时达自费用户","longitude":113.9012280782054,"latitude":22.562841728494465,"province":"广东省","city":"深圳市","district":"宝安区","address":"广东省深圳市宝安区建安一路99号","createDate":"2022-04-25 12:01:43","lastUpdateDate":null,"mediaRelationships":[{"id":"391621776658235392","targetId":"391621776645652480","mediaId":"391621770907844608","priority":0,"targetType":"OUTLET"}],"medias":[{"id":"391621770907844608","type":"IMAGE","url":"https://aihuandian-charging-console.oss-cn-shenzhen.aliyuncs.com/product/20220425/53da36bcabbf400b86d4bfcc76a72337.jpg"}]},{"id":"391982733259538432","status":1,"top":0,"shopTime":"00:00@23:00","name":"1","phone":"13168789729","bizId":"374201751853092864","bizName":"爱换电测试商户","longitude":113.93948553107816,"latitude":22.53205210157571,"province":"广东省","city":"深圳市","district":"南山区","address":"广东省深圳市南山区粤兴三道8号","createDate":"2022-04-26 11:56:02","lastUpdateDate":null,"mediaRelationships":[{"id":"391982733272121344","targetId":"391982733259538432","mediaId":"391982727706279936","priority":0,"targetType":"OUTLET"}],"medias":[{"id":"391982727706279936","type":"IMAGE","url":"https://aihuandian-charging-console.oss-cn-shenzhen.aliyuncs.com/product/20220426/8e2862dd6fff46df8b224c1408ec3c41.jpg"}]},{"id":"393129465720700928","status":1,"top":0,"shopTime":"00:00@23:59","name":"骑手驿站","phone":"13610301195","bizId":"393127893192245248","bizName":"爱换电-龙华-加宁","longitude":114.03947393994352,"latitude":22.640090258117688,"province":"广东省","city":"深圳市","district":"龙华区","address":"广东省深圳市龙华区","createDate":"2022-04-29 15:52:44","lastUpdateDate":null,"mediaRelationships":[{"id":"393129465729089536","targetId":"393129465720700928","mediaId":"393129044952317952","priority":0,"targetType":"OUTLET"}],"medias":[{"id":"393129044952317952","type":"IMAGE","url":"https://aihuandian-charging-console.oss-cn-shenzhen.aliyuncs.com/product/20220429/c20d7edd7b13492cbc894af72e83513c.jpg"}]},{"id":"395734197366784000","status":1,"top":0,"shopTime":"00:01@23:58","name":"宝安易即达","phone":"13726264315","bizId":"395731947370151936","bizName":"易即达流塘12站","longitude":113.88165799964095,"latitude":22.581572963235626,"province":"广东省","city":"深圳市","district":"宝安区","address":"广东省深圳市宝安区流塘新村三巷5-2号","createDate":"2022-05-06 20:23:00","lastUpdateDate":null,"mediaRelationships":[{"id":"395734197379366912","targetId":"395734197366784000","mediaId":"395734190630731776","priority":0,"targetType":"OUTLET"}],"medias":[{"id":"395734190630731776","type":"IMAGE","url":"https://aihuandian-charging-console.oss-cn-shenzhen.aliyuncs.com/product/20220506/afa791c42f1f49109df6dc1a82bb9ab4.jpg"}]},{"id":"395740641973600256","status":1,"top":0,"shopTime":"00:01@23:59","name":"易即达3","phone":"13726264315","bizId":"395731136166592512","bizName":"易即达流塘3站","longitude":113.89297205292311,"latitude":22.587788782572446,"province":"广东省","city":"深圳市","district":"宝安区","address":"广东省深圳市宝安区布心一村十二巷1号","createDate":"2022-05-06 20:48:37","lastUpdateDate":null,"mediaRelationships":[{"id":"395740641986183168","targetId":"395740641973600256","mediaId":"395740633111035904","priority":0,"targetType":"OUTLET"}],"medias":[{"id":"395740633111035904","type":"IMAGE","url":"https://aihuandian-charging-console.oss-cn-shenzhen.aliyuncs.com/product/20220506/1e2a2af6bd6546ae8e99c1eda1e22526.jpg"}]},{"id":"398911760121561088","status":1,"top":0,"shopTime":"00:01@23:59","name":"沙井买菜","phone":"18503027064","bizId":"398911105910800384","bizName":"易即达沙井买菜","longitude":113.81649848850847,"latitude":22.732266162327157,"province":"广东省","city":"深圳市","district":"宝安区","address":"广东省深圳市宝安区新沙路314-2号","createDate":"2022-05-15 14:49:30","lastUpdateDate":null,"mediaRelationships":[{"id":"398911760134144000","targetId":"398911760121561088","mediaId":"398911755679793152","priority":0,"targetType":"OUTLET"}],"medias":[{"id":"398911755679793152","type":"IMAGE","url":"https://aihuandian-charging-console.oss-cn-shenzhen.aliyuncs.com/product/20220515/df6c014e93574dcb8e6b35c45f95744e.jpg"}]},{"id":"399995985487859712","status":1,"top":0,"shopTime":"09:00@21:00","name":"饿了么南水站","phone":"15884515512","bizId":"399989776215052288","bizName":"饿了么南水站","longitude":113.9198419431306,"latitude":22.492735888986644,"province":"广东省","city":"深圳市","district":"南山区","address":"广东省深圳市南山区公园南路63-1","createDate":"2022-05-18 14:37:50","lastUpdateDate":null,"mediaRelationships":[{"id":"399995985500442624","targetId":"399995985487859712","mediaId":"399995811831091200","priority":0,"targetType":"OUTLET"}],"medias":[{"id":"399995811831091200","type":"IMAGE","url":"https://aihuandian-charging-console.oss-cn-shenzhen.aliyuncs.com/product/20220518/4b4addc1633042618642d2561be4279f.jpg"}]},{"id":"402914745932713984","status":1,"top":0,"shopTime":"00:01@23:59","name":"云星出行","phone":"18038157951","bizId":"402914228137496576","bizName":"云星出行","longitude":113.92177938030092,"latitude":22.511162920579274,"province":"广东省","city":"深圳市","district":"南山区","address":"广东省深圳市南山区建南路29号","createDate":"2022-05-26 15:55:57","lastUpdateDate":null,"mediaRelationships":[{"id":"402914745941102592","targetId":"402914745932713984","mediaId":"402914725212852224","priority":0,"targetType":"OUTLET"}],"medias":[{"id":"402914725212852224","type":"IMAGE","url":"https://aihuandian-charging-console.oss-cn-shenzhen.aliyuncs.com/product/20220526/defe8abe400947feba434a4110e15302.jpg"}]},{"id":"404701446032199680","status":1,"top":0,"shopTime":"08:40@09:40","name":"龙华上油松村","phone":"19928731407","bizId":"404694544741175296","bizName":"龙华试点--闫三伟","longitude":114.0395162404174,"latitude":22.640038240511476,"province":"广东省","city":"深圳市","district":"龙华区","address":"广东省深圳市龙华区油松二路","createDate":"2022-05-31 14:15:39","lastUpdateDate":"2022-06-01 14:50:13","mediaRelationships":[{"id":"404701446044782592","targetId":"404701446032199680","mediaId":"404700989998108672","priority":0,"targetType":"OUTLET"}],"medias":[{"id":"404700989998108672","type":"IMAGE","url":"https://aihuandian-charging-console.oss-cn-shenzhen.aliyuncs.com/product/20220531/a33988af22714077b7056856dc3a6ca3.jpg"}]},{"id":"405059755264315392","status":1,"top":0,"shopTime":"09:00@20:00","name":"龙华区上油松村","phone":"19928731407","bizId":"337708617098977280","bizName":"深圳龙华试点","longitude":114.0395328361465,"latitude":22.63999713391366,"province":"广东省","city":"深圳市","district":"龙华区","address":"广东省深圳市龙华区油松二路","createDate":"2022-06-01 13:59:27","lastUpdateDate":null,"mediaRelationships":[{"id":"405059755285286912","targetId":"405059755264315392","mediaId":"405059678403694592","priority":0,"targetType":"OUTLET"}],"medias":[{"id":"405059678403694592","type":"IMAGE","url":"https://aihuandian-charging-console.oss-cn-shenzhen.aliyuncs.com/product/20220601/d6ffd6e083f54083bb724a2b0a67b884.jpg"}]},{"id":"412959060486705152","status":1,"top":0,"shopTime":"00:00@23:59","name":"许昌上嘉-桃园站","phone":"18822864232","bizId":"412957591125544960","bizName":"许昌上嘉-桃园站","longitude":113.9171973259878,"latitude":22.543955269800254,"province":"广东省","city":"深圳市","district":"南山区","address":"南山美团站点","createDate":"2022-06-23 09:08:28","lastUpdateDate":null,"mediaRelationships":[{"id":"412959060507676672","targetId":"412959060486705152","mediaId":"412959053759041536","priority":0,"targetType":"OUTLET"}],"medias":[{"id":"412959053759041536","type":"IMAGE","url":"https://aihuandian-charging-console.oss-cn-shenzhen.aliyuncs.com/product/20220623/e11a83a746304eda92b3fbe39f42eeb1.jpeg"}]},{"id":"412961456277344256","status":1,"top":0,"shopTime":"08:40@09:40","name":"北棠 -科技园站","phone":"18666242123","bizId":"412960765441921024","bizName":"北棠 -科技园站","longitude":113.96320231406871,"latitude":22.5543893344208,"province":"广东省","city":"深圳市","district":"南山区","address":"南山美团站点","createDate":"2022-06-23 09:17:59","lastUpdateDate":null,"mediaRelationships":[{"id":"412961456285732864","targetId":"412961456277344256","mediaId":"412961450489204736","priority":0,"targetType":"OUTLET"}],"medias":[{"id":"412961450489204736","type":"IMAGE","url":"https://aihuandian-charging-console.oss-cn-shenzhen.aliyuncs.com/product/20220623/08a5a59a733c4278a1d6f945b36d2df4.jpeg"}]},{"id":"413415247346847744","status":1,"top":0,"shopTime":"00:00@23:59","name":"西乡-欧楠站","phone":"17602045945","bizId":"413414787420442624","bizName":"西乡-欧楠站","longitude":113.96320231406871,"latitude":22.5543893344208,"province":"广东省","city":"深圳市","district":"宝安区","address":"西乡-欧楠站","createDate":"2022-06-24 15:21:11","lastUpdateDate":null,"mediaRelationships":[{"id":"413415247355236352","targetId":"413415247346847744","mediaId":"413415239750963200","priority":0,"targetType":"OUTLET"}],"medias":[{"id":"413415239750963200","type":"IMAGE","url":"https://aihuandian-charging-console.oss-cn-shenzhen.aliyuncs.com/product/20220624/53b3e79c31bc41e58923575a6b265748.jpeg"}]},{"id":"415547153102327808","status":1,"top":0,"shopTime":"01:00@23:59","name":"观澜小刀电动车","phone":"15994814314","bizId":"415256191083925504","bizName":"倪家源","longitude":113.96320231406871,"latitude":22.5543893344208,"province":"广东省","city":"深圳市","district":"龙华区","address":"观澜街道","createDate":"2022-06-30 12:32:37","lastUpdateDate":null,"mediaRelationships":[{"id":"415547153110716416","targetId":"415547153102327808","mediaId":"415547147486154752","priority":0,"targetType":"OUTLET"}],"medias":[{"id":"415547147486154752","type":"IMAGE","url":"https://aihuandian-charging-console.oss-cn-shenzhen.aliyuncs.com/product/20220630/0aa593ca44f24a4cb426b0d873e9e261.jpeg"}]},{"id":"415549390306332672","status":1,"top":0,"shopTime":"00:00@23:59","name":"观澜-雅迪电动车","phone":"15989488810","bizId":"413401352578191360","bizName":"观澜-雅迪电动车","longitude":113.96320231406871,"latitude":22.5543893344208,"province":"广东省","city":"深圳市","district":"龙华区","address":"观澜-雅迪电动车","createDate":"2022-06-30 12:41:31","lastUpdateDate":null,"mediaRelationships":[{"id":"415549390318915584","targetId":"415549390306332672","mediaId":"415549382785945600","priority":0,"targetType":"OUTLET"}],"medias":[{"id":"415549382785945600","type":"IMAGE","url":"https://aihuandian-charging-console.oss-cn-shenzhen.aliyuncs.com/product/20220630/af6b4955a6c94538b04876d45b20a7fc.jpeg"}]},{"id":"415562358649704448","status":1,"top":0,"shopTime":"00:00@23:59","name":"乔方俊","phone":"16263400477","bizId":"415534902492450816","bizName":"龙华试点-乔方俊","longitude":113.96320231406871,"latitude":22.5543893344208,"province":"广东省","city":"深圳市","district":"龙华区","address":"龙华区","createDate":"2022-06-30 13:33:02","lastUpdateDate":null,"mediaRelationships":[{"id":"415562358662287360","targetId":"415562358649704448","mediaId":"415562353633316864","priority":0,"targetType":"OUTLET"}],"medias":[{"id":"415562353633316864","type":"IMAGE","url":"https://aihuandian-charging-console.oss-cn-shenzhen.aliyuncs.com/product/20220630/1bfbbe63e38843bc80144d2aec4a5df1.jpeg"}]},{"id":"415568039289212928","status":1,"top":0,"shopTime":"00:00@23:59","name":"林启绵","phone":"17722518468","bizId":"415567658425438208","bizName":"龙华试点--林启绵","longitude":113.96320231406871,"latitude":22.5543893344208,"province":"广东省","city":"深圳市","district":"龙岗区","address":"龙岗","createDate":"2022-06-30 13:55:37","lastUpdateDate":null,"mediaRelationships":[{"id":"415568039301795840","targetId":"415568039289212928","mediaId":"415568034771947520","priority":0,"targetType":"OUTLET"}],"medias":[{"id":"415568034771947520","type":"IMAGE","url":"https://aihuandian-charging-console.oss-cn-shenzhen.aliyuncs.com/product/20220630/cf369f1bf45941c0b7bd6bd7082018d2.jpeg"}]},{"id":"416298593005522944","status":1,"top":0,"shopTime":"08:40@09:40","name":"南山1组门店","phone":"13428944831","bizId":"414851388503674880","bizName":"48·30-南山1组","longitude":113.96320231406871,"latitude":22.5543893344208,"province":"广东省","city":"深圳市","district":"南山区","address":"南山区","createDate":"2022-07-02 14:18:34","lastUpdateDate":null,"mediaRelationships":[{"id":"416298593013911552","targetId":"416298593005522944","mediaId":"416298588375011328","priority":0,"targetType":"OUTLET"}],"medias":[{"id":"416298588375011328","type":"IMAGE","url":"https://aihuandian-charging-console.oss-cn-shenzhen.aliyuncs.com/product/20220702/1826a057209c4186af5502d05f383d7b.jpeg"}]},{"id":"416299016273711104","status":1,"top":0,"shopTime":"00:00@23:59","name":"南山门店2","phone":"13428944830","bizId":"414851613171568640","bizName":"48·30-南山2组","longitude":113.96320231406871,"latitude":22.5543893344208,"province":"广东省","city":"深圳市","district":"南山区","address":"南山门店","createDate":"2022-07-02 14:20:15","lastUpdateDate":null,"mediaRelationships":[{"id":"416299016286294016","targetId":"416299016273711104","mediaId":"416299010523320320","priority":0,"targetType":"OUTLET"}],"medias":[{"id":"416299010523320320","type":"IMAGE","url":"https://aihuandian-charging-console.oss-cn-shenzhen.aliyuncs.com/product/20220702/c8e0ef17c5954a70b468765dd6c3bb8f.jpeg"}]},{"id":"416299419644121088","status":1,"top":0,"shopTime":"00:00@23:59","name":"宝安门店","phone":"13428944833","bizId":"414851846479728640","bizName":"48·30-宝安组","longitude":113.96320236011495,"latitude":22.554389398983027,"province":"广东省","city":"深圳市","district":"宝安区","address":"宝安门店","createDate":"2022-07-02 14:21:51","lastUpdateDate":null,"mediaRelationships":[{"id":"416299419656704000","targetId":"416299419644121088","mediaId":"416299380381241344","priority":0,"targetType":"OUTLET"}],"medias":[{"id":"416299380381241344","type":"IMAGE","url":"https://aihuandian-charging-console.oss-cn-shenzhen.aliyuncs.com/product/20220702/d17875b4325c41adb7e32c93af618720.jpeg"}]},{"id":"417317670084861952","status":1,"top":0,"shopTime":"06:00@23:59","name":"B端门店","phone":"13822722738","bizId":"417316773774680064","bizName":"B端商户","longitude":113.96320231406871,"latitude":22.5543893344208,"province":"广东省","city":"深圳市","district":"全部","address":"深圳","createDate":"2022-07-05 09:48:01","lastUpdateDate":null,"mediaRelationships":[{"id":"417317670114222080","targetId":"417317670084861952","mediaId":"417317664653238272","priority":0,"targetType":"OUTLET"}],"medias":[{"id":"417317664653238272","type":"IMAGE","url":"https://aihuandian-charging-console.oss-cn-shenzhen.aliyuncs.com/product/20220705/256fc9125b8a43918f840544dd2dfcd8.jpeg"}]},{"id":"417344877163372544","status":1,"top":0,"shopTime":"00:00@23:59","name":"南头南油门店","phone":"17841122019","bizId":"417344384852746240","bizName":"南头南油商户","longitude":113.96320231406871,"latitude":22.5543893344208,"province":"广东省","city":"深圳市","district":"南山区","address":"南头南油","createDate":"2022-07-05 11:36:08","lastUpdateDate":null,"mediaRelationships":[{"id":"417344877188538368","targetId":"417344877163372544","mediaId":"417344866006523904","priority":0,"targetType":"OUTLET"}],"medias":[{"id":"417344866006523904","type":"IMAGE","url":"https://aihuandian-charging-console.oss-cn-shenzhen.aliyuncs.com/product/20220705/cb27f963a03e48448f45a67739b9afaa.jpeg"}]},{"id":"417387630962335744","status":1,"top":0,"shopTime":"00:00@23:59","name":"南山-南头商户","phone":"17841122019","bizId":"417380324585431040","bizName":"南山-南头商户","longitude":113.96320231406871,"latitude":22.5543893344208,"province":"广东省","city":"深圳市","district":"南山区","address":"南山-南头","createDate":"2022-07-05 14:26:01","lastUpdateDate":null,"mediaRelationships":[{"id":"417387630983307264","targetId":"417387630962335744","mediaId":"417386853908799488","priority":0,"targetType":"OUTLET"}],"medias":[{"id":"417386853908799488","type":"IMAGE","url":"https://aihuandian-charging-console.oss-cn-shenzhen.aliyuncs.com/product/20220705/fd0ea884693248f7ac875998b699957c.jpg"}]},{"id":"417396644844593152","status":1,"top":0,"shopTime":"00:00@23:59","name":"人人租车商户","phone":"17841122019","bizId":"417391861991661568","bizName":"人人租车商户","longitude":113.96320231406871,"latitude":22.5543893344208,"province":"广东省","city":"深圳市","district":"南山区","address":"人人租车商户","createDate":"2022-07-05 15:01:50","lastUpdateDate":"2022-07-05 15:02:06","mediaRelationships":[{"id":"417396644865564672","targetId":"417396644844593152","mediaId":"417396597029527552","priority":0,"targetType":"OUTLET"}],"medias":[{"id":"417396597029527552","type":"IMAGE","url":"https://aihuandian-charging-console.oss-cn-shenzhen.aliyuncs.com/product/20220705/9f69cad5be1648a7a8d45dd99938adb7.jpg"}]},{"id":"417398258816966656","status":1,"top":0,"shopTime":"00:00@23:59","name":"南山活动群组","phone":"17841122019","bizId":"417397434900471808","bizName":"南山活动群组","longitude":113.96320231406871,"latitude":22.5543893344208,"province":"广东省","city":"深圳市","district":"南山区","address":"南山活动群组","createDate":"2022-07-05 15:08:15","lastUpdateDate":null,"mediaRelationships":[{"id":"417398258842132480","targetId":"417398258816966656","mediaId":"417398209533894656","priority":0,"targetType":"OUTLET"}],"medias":[{"id":"417398209533894656","type":"IMAGE","url":"https://aihuandian-charging-console.oss-cn-shenzhen.aliyuncs.com/product/20220705/55b2646dad124faa950c85a8c45e8ea4.jpg"}]},{"id":"417399415002030080","status":1,"top":0,"shopTime":"00:00@23:59","name":"易即达商户","phone":"17841122019","bizId":"417398634236534784","bizName":"易即达商户","longitude":113.96320231406871,"latitude":22.5543893344208,"province":"广东省","city":"深圳市","district":"南山区","address":"易即达商户","createDate":"2022-07-05 15:12:51","lastUpdateDate":null,"mediaRelationships":[{"id":"417399415023001600","targetId":"417399415002030080","mediaId":"417399375764316160","priority":0,"targetType":"OUTLET"}],"medias":[{"id":"417399375764316160","type":"IMAGE","url":"https://aihuandian-charging-console.oss-cn-shenzhen.aliyuncs.com/product/20220705/e630f95c19b640a2bc2a81c6bd227889.jpg"}]},{"id":"417401524439146496","status":1,"top":0,"shopTime":"00:00@23:59","name":"南山商户","phone":"17841122019","bizId":"417400950025019392","bizName":"南山商户","longitude":113.96320231406871,"latitude":22.5543893344208,"province":"广东省","city":"深圳市","district":"南山区","address":"南山商户","createDate":"2022-07-05 15:21:14","lastUpdateDate":null,"mediaRelationships":[{"id":"417401524460118016","targetId":"417401524439146496","mediaId":"417401503597649920","priority":0,"targetType":"OUTLET"}],"medias":[{"id":"417401503597649920","type":"IMAGE","url":"https://aihuandian-charging-console.oss-cn-shenzhen.aliyuncs.com/product/20220705/f5a4d35636034d6087e1654dc97ceac9.jpg"}]},{"id":"417402463044689920","status":1,"top":0,"shopTime":"00:00@23:59","name":"南油一站-易即达商户","phone":"17841122019","bizId":"417401845391482880","bizName":"南油一站-易即达商户","longitude":113.96320231406871,"latitude":22.5543893344208,"province":"广东省","city":"深圳市","district":"南山区","address":"南油一站-易即达商户","createDate":"2022-07-05 15:24:57","lastUpdateDate":null,"mediaRelationships":[{"id":"417402463069855744","targetId":"417402463044689920","mediaId":"417402432153640960","priority":0,"targetType":"OUTLET"}],"medias":[{"id":"417402432153640960","type":"IMAGE","url":"https://aihuandian-charging-console.oss-cn-shenzhen.aliyuncs.com/product/20220705/517c8fad13894826adbf5baedbda1eef.jpg"}]},{"id":"417403616448929792","status":1,"top":0,"shopTime":"00:00@23:59","name":"南油二站—易即达商户","phone":"17841122019","bizId":"417402815202648064","bizName":" 南油二站—易即达商户","longitude":113.96320231406871,"latitude":22.5543893344208,"province":"广东省","city":"深圳市","district":"南山区","address":"南油二站—易即达商户","createDate":"2022-07-05 15:29:32","lastUpdateDate":null,"mediaRelationships":[{"id":"417403616474095616","targetId":"417403616448929792","mediaId":"417403581086752768","priority":0,"targetType":"OUTLET"}],"medias":[{"id":"417403581086752768","type":"IMAGE","url":"https://aihuandian-charging-console.oss-cn-shenzhen.aliyuncs.com/product/20220705/2be5bd2e61ca43d0aebbbea9089621fb.jpg"}]},{"id":"417404620942794752","status":1,"top":0,"shopTime":"00:00@23:59","name":"后海一站—易即达商户","phone":"17841122019","bizId":"417404054137135104","bizName":"后海一站—易即达商户","longitude":113.96320231406871,"latitude":22.5543893344208,"province":"广东省","city":"深圳市","district":"南山区","address":"后海一站—易即达商户","createDate":"2022-07-05 15:33:32","lastUpdateDate":null,"mediaRelationships":[{"id":"417404620963766272","targetId":"417404620942794752","mediaId":"417404603997806592","priority":0,"targetType":"OUTLET"}],"medias":[{"id":"417404603997806592","type":"IMAGE","url":"https://aihuandian-charging-console.oss-cn-shenzhen.aliyuncs.com/product/20220705/2fa2319f6f9e44eaac0feced7e9e705a.jpg"}]},{"id":"417405967658311680","status":1,"top":0,"shopTime":"00:00@23:59","name":"后海三站-易即达商户","phone":"17841122019","bizId":"417405211391746048","bizName":"后海三站-易即达商户","longitude":113.96320231406871,"latitude":22.5543893344208,"province":"广东省","city":"深圳市","district":"南山区","address":"后海三站-易即达商户","createDate":"2022-07-05 15:38:53","lastUpdateDate":null,"mediaRelationships":[{"id":"417405967679283200","targetId":"417405967658311680","mediaId":"417405934863048704","priority":0,"targetType":"OUTLET"}],"medias":[{"id":"417405934863048704","type":"IMAGE","url":"https://aihuandian-charging-console.oss-cn-shenzhen.aliyuncs.com/product/20220705/0592c47579f74d1ab91c20e096273045.jpg"}]},{"id":"417407126787776512","status":1,"top":0,"shopTime":"00:00@00:00","name":"聚和川星海名城站商户","phone":"17841122019","bizId":"417406365488046080","bizName":"聚和川星海名城站商户","longitude":113.96320231406871,"latitude":22.5543893344208,"province":"广东省","city":"深圳市","district":"南山区","address":"聚和川星海名城站商户","createDate":"2022-07-05 15:43:29","lastUpdateDate":null,"mediaRelationships":[{"id":"417407126808748032","targetId":"417407126787776512","mediaId":"417407101630341120","priority":0,"targetType":"OUTLET"}],"medias":[{"id":"417407101630341120","type":"IMAGE","url":"https://aihuandian-charging-console.oss-cn-shenzhen.aliyuncs.com/product/20220705/7cc118287a4a4f52a8ebc95508698f87.jpg"}]},{"id":"417408640440786944","status":1,"top":0,"shopTime":"00:00@23:59","name":" 聚和川常兴站商户","phone":"17841122019","bizId":"417407480522792960","bizName":"聚和川常兴站商户","longitude":113.96320231406871,"latitude":22.5543893344208,"province":"广东省","city":"深圳市","district":"南山区","address":" 聚和川常兴站商户","createDate":"2022-07-05 15:49:30","lastUpdateDate":null,"mediaRelationships":[{"id":"417408640465952768","targetId":"417408640440786944","mediaId":"417408585151471616","priority":0,"targetType":"OUTLET"}],"medias":[{"id":"417408585151471616","type":"IMAGE","url":"https://aihuandian-charging-console.oss-cn-shenzhen.aliyuncs.com/product/20220705/fdc0387cc0414a11aa567cdb5e26539b.jpg"}]},{"id":"417409624994930688","status":1,"top":0,"shopTime":"00:00@23:59","name":"南山短押商户","phone":"17841122019","bizId":"417409077587927040","bizName":"南山短押商户","longitude":113.96320231406871,"latitude":22.5543893344208,"province":"广东省","city":"深圳市","district":"南山区","address":"南山短押商户","createDate":"2022-07-05 15:53:25","lastUpdateDate":null,"mediaRelationships":[{"id":"417409625015902208","targetId":"417409624994930688","mediaId":"417409568908697600","priority":0,"targetType":"OUTLET"}],"medias":[{"id":"417409568908697600","type":"IMAGE","url":"https://aihuandian-charging-console.oss-cn-shenzhen.aliyuncs.com/product/20220705/f14edbb2e6424ef4b3924a6fd4b1ab8c.jpg"}]},{"id":"417410763073183744","status":1,"top":0,"shopTime":"00:00@23:59","name":"南山长押商户","phone":"17841122019","bizId":"417410147940753408","bizName":"南山长押商户","longitude":113.96320231406871,"latitude":22.5543893344208,"province":"广东省","city":"深圳市","district":"南山区","address":"南山长押商户","createDate":"2022-07-05 15:57:56","lastUpdateDate":null,"mediaRelationships":[{"id":"417410763106738176","targetId":"417410763073183744","mediaId":"417410703090442240","priority":0,"targetType":"OUTLET"}],"medias":[{"id":"417410703090442240","type":"IMAGE","url":"https://aihuandian-charging-console.oss-cn-shenzhen.aliyuncs.com/product/20220705/1b6ccd386ac44b0ea4e03eec571f0f6c.jpg"}]},{"id":"417411868607832064","status":1,"top":0,"shopTime":"00:00@23:59","name":"南山车辆免租免押商户","phone":"17841122019","bizId":"417411314779348992","bizName":"南山车辆免租免押商户","longitude":113.96320231406871,"latitude":22.5543893344208,"province":"广东省","city":"深圳市","district":"南山区","address":"南山车辆免租免押商户","createDate":"2022-07-05 16:02:20","lastUpdateDate":null,"mediaRelationships":[{"id":"417411868628803584","targetId":"417411868607832064","mediaId":"417411852002582528","priority":0,"targetType":"OUTLET"}],"medias":[{"id":"417411852002582528","type":"IMAGE","url":"https://aihuandian-charging-console.oss-cn-shenzhen.aliyuncs.com/product/20220705/e1911014aad14690a6d6b5e74fdea00f.jpg"}]},{"id":"417413177847242752","status":1,"top":0,"shopTime":"00:00@23:59","name":"后海二站-易即达商户","phone":"17841122019","bizId":"417412386860228608","bizName":"后海二站-易即达商户","longitude":113.96320231406871,"latitude":22.5543893344208,"province":"广东省","city":"深圳市","district":"南山区","address":"后海二站-易即达商户","createDate":"2022-07-05 16:07:32","lastUpdateDate":null,"mediaRelationships":[{"id":"417413177872408576","targetId":"417413177847242752","mediaId":"417413103650004992","priority":0,"targetType":"OUTLET"}],"medias":[{"id":"417413103650004992","type":"IMAGE","url":"https://aihuandian-charging-console.oss-cn-shenzhen.aliyuncs.com/product/20220705/6b233e556dff4cb9b18841c8015c5354.jpg"}]},{"id":"417414232496594944","status":1,"top":0,"shopTime":"00:00@23:59","name":"冠府-南油站商户","phone":"17841122019","bizId":"417413669352562688","bizName":"冠府-南油站商户","longitude":113.96320231406871,"latitude":22.5543893344208,"province":"广东省","city":"深圳市","district":"南山区","address":"冠府-南油站商户","createDate":"2022-07-05 16:11:44","lastUpdateDate":null,"mediaRelationships":[{"id":"417414232517566464","targetId":"417414232496594944","mediaId":"417414212095500288","priority":0,"targetType":"OUTLET"}],"medias":[{"id":"417414212095500288","type":"IMAGE","url":"https://aihuandian-charging-console.oss-cn-shenzhen.aliyuncs.com/product/20220705/4f3f5e8a9c4940e2b08fc8950f239ec1.jpg"}]},{"id":"417415269164965888","status":1,"top":0,"shopTime":"00:00@23:59","name":"钧正商户","phone":"17841122019","bizId":"417414767723339776","bizName":"钧正商户","longitude":113.96320231406871,"latitude":22.5543893344208,"province":"广东省","city":"深圳市","district":"南山区","address":"钧正商户","createDate":"2022-07-05 16:15:51","lastUpdateDate":null,"mediaRelationships":[{"id":"417415269185937408","targetId":"417415269164965888","mediaId":"417415241960710144","priority":0,"targetType":"OUTLET"}],"medias":[{"id":"417415241960710144","type":"IMAGE","url":"https://aihuandian-charging-console.oss-cn-shenzhen.aliyuncs.com/product/20220705/bf086537dd264e08a5b279f19542a569.jpg"}]},{"id":"417416159959638016","status":1,"top":0,"shopTime":"00:00@23:59","name":"南山-科技园长押商户","phone":"17841122019","bizId":"417415638368575488","bizName":"南山-科技园长押商户","longitude":113.96320231406871,"latitude":22.5543893344208,"province":"广东省","city":"深圳市","district":"南山区","address":"南山-科技园长押商户","createDate":"2022-07-05 16:19:23","lastUpdateDate":null,"mediaRelationships":[{"id":"417416159980609536","targetId":"417416159959638016","mediaId":"417416139009089536","priority":0,"targetType":"OUTLET"}],"medias":[{"id":"417416139009089536","type":"IMAGE","url":"https://aihuandian-charging-console.oss-cn-shenzhen.aliyuncs.com/product/20220705/83393c3e751947f98b50c86a766bfc0c.jpg"}]},{"id":"417418289051262976","status":1,"top":0,"shopTime":"00:00@23:59","name":"南山-科技园商户","phone":"17841122019","bizId":"417417104474955776","bizName":"南山-科技园商户","longitude":113.96320231406871,"latitude":22.5543893344208,"province":"广东省","city":"深圳市","district":"南山区","address":"南山-科技园商户","createDate":"2022-07-05 16:27:51","lastUpdateDate":null,"mediaRelationships":[{"id":"417418289072234496","targetId":"417418289051262976","mediaId":"417418136605089792","priority":0,"targetType":"OUTLET"}],"medias":[{"id":"417418136605089792","type":"IMAGE","url":"https://aihuandian-charging-console.oss-cn-shenzhen.aliyuncs.com/product/20220705/fc5505177f6e40a5b249be9799e0bada.jpg"}]},{"id":"417419380497244160","status":1,"top":0,"shopTime":"00:00@23:59","name":"南山-科技园短押商户","phone":"17841122019","bizId":"417418780439142400","bizName":"南山-科技园短押商户","longitude":113.96320231406871,"latitude":22.5543893344208,"province":"广东省","city":"深圳市","district":"南山区","address":"南山-科技园短押商户","createDate":"2022-07-05 16:32:11","lastUpdateDate":null,"mediaRelationships":[{"id":"417419380514021376","targetId":"417419380497244160","mediaId":"417419349522309120","priority":0,"targetType":"OUTLET"}],"medias":[{"id":"417419349522309120","type":"IMAGE","url":"https://aihuandian-charging-console.oss-cn-shenzhen.aliyuncs.com/product/20220705/c1901670ebb34da2b19b1e057cd0f032.jpg"}]},{"id":"417421491456892928","status":1,"top":0,"shopTime":"00:00@23:59","name":"北棠园西1站商户","phone":"17841122019","bizId":"417421002623344640","bizName":"北棠园西1站商户","longitude":113.96320231406871,"latitude":22.5543893344208,"province":"广东省","city":"深圳市","district":"南山区","address":"北棠园西1站商户","createDate":"2022-07-05 16:40:34","lastUpdateDate":null,"mediaRelationships":[{"id":"417421491482058752","targetId":"417421491456892928","mediaId":"417421469927530496","priority":0,"targetType":"OUTLET"}],"medias":[{"id":"417421469927530496","type":"IMAGE","url":"https://aihuandian-charging-console.oss-cn-shenzhen.aliyuncs.com/product/20220705/ad63b042ba954cf380d67bef9a56e7f4.jpg"}]},{"id":"417422470600384512","status":1,"top":0,"shopTime":"00:00@23:59","name":"聚合川（企业）-常兴站商户","phone":"17841122019","bizId":"417421884668698624","bizName":"聚合川（企业）-常兴站商户","longitude":113.96320231406871,"latitude":22.5543893344208,"province":"广东省","city":"深圳市","district":"南山区","address":"聚合川（企业）-常兴站商户","createDate":"2022-07-05 16:44:28","lastUpdateDate":null,"mediaRelationships":[{"id":"417422470621356032","targetId":"417422470600384512","mediaId":"417422443618426880","priority":0,"targetType":"OUTLET"}],"medias":[{"id":"417422443618426880","type":"IMAGE","url":"https://aihuandian-charging-console.oss-cn-shenzhen.aliyuncs.com/product/20220705/81cef4b10e0a4ccf824deadebcd6bf8a.jpg"}]},{"id":"417423730103738368","status":1,"top":0,"shopTime":"00:00@23:59","name":"聚合川（企业）-后海站商户","phone":"17841122019","bizId":"417423141223456768","bizName":"聚合川（企业）-后海站商户","longitude":113.96320231406871,"latitude":22.5543893344208,"province":"广东省","city":"深圳市","district":"南山区","address":"聚合川（企业）-后海站商户","createDate":"2022-07-05 16:49:28","lastUpdateDate":null,"mediaRelationships":[{"id":"417423730124709888","targetId":"417423730103738368","mediaId":"417423701376950272","priority":0,"targetType":"OUTLET"}],"medias":[{"id":"417423701376950272","type":"IMAGE","url":"https://aihuandian-charging-console.oss-cn-shenzhen.aliyuncs.com/product/20220705/5e415f5c70c44939b9a63035a31b3577.jpg"}]},{"id":"417424988613042176","status":1,"top":0,"shopTime":"00:00@23:59","name":"聚合川（企业）-星海名城站商户","phone":"17841122019","bizId":"417424275380035584","bizName":"聚合川（企业）-星海名城站商户","longitude":113.96320231406871,"latitude":22.5543893344208,"province":"广东省","city":"深圳市","district":"南山区","address":"聚合川（企业）-星海名城站商户","createDate":"2022-07-05 16:54:28","lastUpdateDate":null,"mediaRelationships":[{"id":"417424988634013696","targetId":"417424988613042176","mediaId":"417424978165030912","priority":0,"targetType":"OUTLET"}],"medias":[{"id":"417424978165030912","type":"IMAGE","url":"https://aihuandian-charging-console.oss-cn-shenzhen.aliyuncs.com/product/20220705/0b90da788f7740098fe0cf669cf5bb44.jpg"}]},{"id":"417425836118302720","status":1,"top":0,"shopTime":"00:00@23:59","name":"聚合川（企业）-阿里云站商户","phone":"17841122019","bizId":"417425312040017920","bizName":"聚合川（企业）-阿里云站商户","longitude":113.96320231406871,"latitude":22.5543893344208,"province":"广东省","city":"深圳市","district":"南山区","address":"聚合川（企业）-阿里云站商户","createDate":"2022-07-05 16:57:50","lastUpdateDate":null,"mediaRelationships":[{"id":"417425836139274240","targetId":"417425836118302720","mediaId":"417425711165792256","priority":0,"targetType":"OUTLET"}],"medias":[{"id":"417425711165792256","type":"IMAGE","url":"https://aihuandian-charging-console.oss-cn-shenzhen.aliyuncs.com/product/20220705/d46a97bee9144c2f8b00b20680644e7b.jpg"}]},{"id":"417427306301546496","status":1,"top":0,"shopTime":"00:00@23:59","name":"聚合川（企业）-花园城站商户","phone":"17841122019","bizId":"417426855883628544","bizName":"聚合川（企业）-花园城站商户","longitude":113.96320231406871,"latitude":22.5543893344208,"province":"广东省","city":"深圳市","district":"南山区","address":"聚合川（企业）-花园城站商户","createDate":"2022-07-05 17:03:41","lastUpdateDate":null,"mediaRelationships":[{"id":"417427306322518016","targetId":"417427306301546496","mediaId":"417427261825146880","priority":0,"targetType":"OUTLET"}],"medias":[{"id":"417427261825146880","type":"IMAGE","url":"https://aihuandian-charging-console.oss-cn-shenzhen.aliyuncs.com/product/20220705/6766f2c01d1f4e7dbbf36c330765a7b8.jpg"}]},{"id":"417427751229120512","status":1,"top":0,"shopTime":"00:00@23:59","name":"宝安-杰瑞豪","phone":"18200121830","bizId":"417426936946941952","bizName":"宝安-杰瑞豪","longitude":113.96320231406871,"latitude":22.5543893344208,"province":"广东省","city":"深圳市","district":"宝安区","address":"宝安全区","createDate":"2022-07-05 17:05:27","lastUpdateDate":null,"mediaRelationships":[{"id":"417427751250092032","targetId":"417427751229120512","mediaId":"417427743670984704","priority":0,"targetType":"OUTLET"}],"medias":[{"id":"417427743670984704","type":"IMAGE","url":"https://aihuandian-charging-console.oss-cn-shenzhen.aliyuncs.com/product/20220705/d8bd612ae0ce4409a8ca80b1689efb1c.jpeg"}]},{"id":"417428087834599424","status":1,"top":0,"shopTime":"00:00@23:59","name":"聚合川（企业）-前海站商户","phone":"17841122019","bizId":"417427641468379136","bizName":"聚合川（企业）-前海站商户","longitude":113.96320231406871,"latitude":22.5543893344208,"province":"广东省","city":"深圳市","district":"南山区","address":"聚合川（企业）-前海站商户","createDate":"2022-07-05 17:06:47","lastUpdateDate":null,"mediaRelationships":[{"id":"417428087855570944","targetId":"417428087834599424","mediaId":"417428074861617152","priority":0,"targetType":"OUTLET"}],"medias":[{"id":"417428074861617152","type":"IMAGE","url":"https://aihuandian-charging-console.oss-cn-shenzhen.aliyuncs.com/product/20220705/e46bed0a9e3f4892a59889927e25c11b.jpg"}]},{"id":"417429995429224448","status":1,"top":0,"shopTime":"00:00@23:59","name":"聚合川（企业）-世界之窗站商户","phone":"17841122019","bizId":"417428839386767360","bizName":"聚合川（企业）-世界之窗站商户","longitude":113.96320231406871,"latitude":22.5543893344208,"province":"广东省","city":"深圳市","district":"南山区","address":"聚合川（企业）-世界之窗站商户","createDate":"2022-07-05 17:14:22","lastUpdateDate":null,"mediaRelationships":[{"id":"417429995450195968","targetId":"417429995429224448","mediaId":"417429969185464320","priority":0,"targetType":"OUTLET"}],"medias":[{"id":"417429969185464320","type":"IMAGE","url":"https://aihuandian-charging-console.oss-cn-shenzhen.aliyuncs.com/product/20220705/41634770c3dd4dbc91c9b87f9ce96fb6.jpg"}]},{"id":"417430572838084608","status":1,"top":0,"shopTime":"00:00@23:59","name":"聚和川（企业）-天利名城站商户","phone":"17841122019","bizId":"417429228483960832","bizName":" 聚和川（企业）-天利名城站商户","longitude":113.96320231406871,"latitude":22.5543893344208,"province":"广东省","city":"深圳市","district":"南山区","address":"聚和川（企业）-天利名城站商户","createDate":"2022-07-05 17:16:39","lastUpdateDate":null,"mediaRelationships":[{"id":"417430572863250432","targetId":"417430572838084608","mediaId":"417430560406167552","priority":0,"targetType":"OUTLET"}],"medias":[{"id":"417430560406167552","type":"IMAGE","url":"https://aihuandian-charging-console.oss-cn-shenzhen.aliyuncs.com/product/20220705/f48fcd2c197e4e5682ff0f807122c229.jpg"}]},{"id":"417432037388378112","status":1,"top":0,"shopTime":"00:00@23:59","name":"聚合川（企业）-科苑站商户","phone":"17841122019","bizId":"417431163077320704","bizName":"聚合川（企业）-科苑站商户","longitude":113.96320231406871,"latitude":22.5543893344208,"province":"广东省","city":"深圳市","district":"南山区","address":"聚合川（企业）-科苑站商户","createDate":"2022-07-05 17:22:29","lastUpdateDate":null,"mediaRelationships":[{"id":"417432037409349632","targetId":"417432037388378112","mediaId":"417431985177681920","priority":0,"targetType":"OUTLET"}],"medias":[{"id":"417431985177681920","type":"IMAGE","url":"https://aihuandian-charging-console.oss-cn-shenzhen.aliyuncs.com/product/20220705/a8b48817311345bf916ac16485ef0954.jpg"}]},{"id":"417433152309878784","status":1,"top":0,"shopTime":"00:00@23:59","name":"科技园二站-易即达商户","phone":"17841122019","bizId":"417432433678802944","bizName":"科技园二站-易即达商户","longitude":113.96320231406871,"latitude":22.5543893344208,"province":"广东省","city":"深圳市","district":"南山区","address":"科技园二站-易即达商户","createDate":"2022-07-05 17:26:54","lastUpdateDate":null,"mediaRelationships":[{"id":"417433152330850304","targetId":"417433152309878784","mediaId":"417433138384789504","priority":0,"targetType":"OUTLET"}],"medias":[{"id":"417433138384789504","type":"IMAGE","url":"https://aihuandian-charging-console.oss-cn-shenzhen.aliyuncs.com/product/20220705/f834438bd8064a559f498107c45f8a46.jpg"}]},{"id":"417433976687747072","status":1,"top":0,"shopTime":"00:00@23:59","name":"北棠西丽站商户","phone":"17841122019","bizId":"417433539628687360","bizName":"北棠西丽站商户","longitude":113.96320231406871,"latitude":22.5543893344208,"province":"广东省","city":"深圳市","district":"南山区","address":"北棠西丽站商户","createDate":"2022-07-05 17:30:11","lastUpdateDate":null,"mediaRelationships":[{"id":"417433976704524288","targetId":"417433976687747072","mediaId":"417433898778550272","priority":0,"targetType":"OUTLET"}],"medias":[{"id":"417433898778550272","type":"IMAGE","url":"https://aihuandian-charging-console.oss-cn-shenzhen.aliyuncs.com/product/20220705/579d713f096746aba778c9ad7873ed06.jpg"}]},{"id":"417435901659373568","status":1,"top":0,"shopTime":"00:00@23:59","name":"北棠南油站商户","phone":"17841122019","bizId":"417434277373206528","bizName":"北棠南油站商户","longitude":113.96320231406871,"latitude":22.5543893344208,"province":"广东省","city":"深圳市","district":"南山区","address":"北棠南油站商户","createDate":"2022-07-05 17:37:50","lastUpdateDate":null,"mediaRelationships":[{"id":"417435901680345088","targetId":"417435901659373568","mediaId":"417435886849286144","priority":0,"targetType":"OUTLET"}],"medias":[{"id":"417435886849286144","type":"IMAGE","url":"https://aihuandian-charging-console.oss-cn-shenzhen.aliyuncs.com/product/20220705/4d258c8db9e74375a985277006fab6d8.jpg"}]},{"id":"417436847898550272","status":1,"top":0,"shopTime":"00:00@23:59","name":"科技园一站-易即达商户","phone":"17841122019","bizId":"417436297295486976","bizName":"科技园一站-易即达商户","longitude":113.96320231406871,"latitude":22.5543893344208,"province":"广东省","city":"深圳市","district":"南山区","address":"科技园一站-易即达商户","createDate":"2022-07-05 17:41:35","lastUpdateDate":null,"mediaRelationships":[{"id":"417436847923716096","targetId":"417436847898550272","mediaId":"417436826759258112","priority":0,"targetType":"OUTLET"}],"medias":[{"id":"417436826759258112","type":"IMAGE","url":"https://aihuandian-charging-console.oss-cn-shenzhen.aliyuncs.com/product/20220705/24bb6f0d17c54e70bb9c885a2e4050c5.jpg"}]},{"id":"417438529676042240","status":1,"top":0,"shopTime":"00:00@23:59","name":"北棠园西2站商户","phone":"17841122019","bizId":"417437140262510592","bizName":"北棠园西2站商户","longitude":113.96320231406871,"latitude":22.5543893344208,"province":"广东省","city":"深圳市","district":"南山区","address":"北棠园西2站商户","createDate":"2022-07-05 17:48:16","lastUpdateDate":null,"mediaRelationships":[{"id":"417438529697013760","targetId":"417438529676042240","mediaId":"417438510629707776","priority":0,"targetType":"OUTLET"}],"medias":[{"id":"417438510629707776","type":"IMAGE","url":"https://aihuandian-charging-console.oss-cn-shenzhen.aliyuncs.com/product/20220705/50e96a70ecb245b480bdfcaab23d640e.jpg"}]},{"id":"417439698897002496","status":1,"top":0,"shopTime":"00:00@23:59","name":"北棠园西3站商户","phone":"17841122019","bizId":"417439036679315456","bizName":"北棠园西3站商户","longitude":113.96320231406871,"latitude":22.5543893344208,"province":"广东省","city":"深圳市","district":"南山区","address":"北棠园西3站商户","createDate":"2022-07-05 17:52:55","lastUpdateDate":null,"mediaRelationships":[{"id":"417439698917974016","targetId":"417439698897002496","mediaId":"417439666810576896","priority":0,"targetType":"OUTLET"}],"medias":[{"id":"417439666810576896","type":"IMAGE","url":"https://aihuandian-charging-console.oss-cn-shenzhen.aliyuncs.com/product/20220705/bd031176a1584faeac946adb5e7f1120.jpg"}]},{"id":"417440420531200000","status":1,"top":0,"shopTime":"00:00@23:59","name":"饿了么常兴站商户","phone":"17841122019","bizId":"417439978447364096","bizName":"饿了么常兴站商户","longitude":113.96320231406871,"latitude":22.5543893344208,"province":"广东省","city":"深圳市","district":"南山区","address":"饿了么常兴站商户","createDate":"2022-07-05 17:55:47","lastUpdateDate":null,"mediaRelationships":[{"id":"417440420556365824","targetId":"417440420531200000","mediaId":"417440404248911872","priority":0,"targetType":"OUTLET"}],"medias":[{"id":"417440404248911872","type":"IMAGE","url":"https://aihuandian-charging-console.oss-cn-shenzhen.aliyuncs.com/product/20220705/7602229b8c094ee8953b6a98f1ec21de.jpg"}]},{"id":"417441116903104512","status":1,"top":0,"shopTime":"00:00@23:59","name":"桃园二站—易即达商户","phone":"17841122019","bizId":"417440697896329216","bizName":"桃园二站—易即达商户","longitude":113.96320231406871,"latitude":22.5543893344208,"province":"广东省","city":"深圳市","district":"南山区","address":"桃园二站—易即达商户","createDate":"2022-07-05 17:58:33","lastUpdateDate":null,"mediaRelationships":[{"id":"417441116924076032","targetId":"417441116903104512","mediaId":"417441093079457792","priority":0,"targetType":"OUTLET"}],"medias":[{"id":"417441093079457792","type":"IMAGE","url":"https://aihuandian-charging-console.oss-cn-shenzhen.aliyuncs.com/product/20220705/919fa58775084eab8190931344536418.jpg"}]},{"id":"417441785680683008","status":1,"top":0,"shopTime":"00:00@23:59","name":"鹏兴车行商户","phone":"17841122019","bizId":"417441357232529408","bizName":"鹏兴车行商户","longitude":113.96320231406871,"latitude":22.5543893344208,"province":"广东省","city":"深圳市","district":"南山区","address":"鹏兴车行商户","createDate":"2022-07-05 18:01:13","lastUpdateDate":null,"mediaRelationships":[{"id":"417441785697460224","targetId":"417441785680683008","mediaId":"417441768765054976","priority":0,"targetType":"OUTLET"}],"medias":[{"id":"417441768765054976","type":"IMAGE","url":"https://aihuandian-charging-console.oss-cn-shenzhen.aliyuncs.com/product/20220705/d9ea8cb8ee0f4a6a9e603049650e42d7.jpg"}]},{"id":"417442557428424704","status":1,"top":0,"shopTime":"00:00@23:59","name":"饿了么南水站商户","phone":"17841122019","bizId":"417442136056061952","bizName":"饿了么南水站商户","longitude":113.96320231406871,"latitude":22.5543893344208,"province":"广东省","city":"深圳市","district":"南山区","address":"饿了么南水站商户","createDate":"2022-07-05 18:04:17","lastUpdateDate":null,"mediaRelationships":[{"id":"417442557449396224","targetId":"417442557428424704","mediaId":"417442543998263296","priority":0,"targetType":"OUTLET"}],"medias":[{"id":"417442543998263296","type":"IMAGE","url":"https://aihuandian-charging-console.oss-cn-shenzhen.aliyuncs.com/product/20220705/10c4874a28e44fd7ab2299876db00ebe.jpg"}]},{"id":"417443148435218432","status":1,"top":0,"shopTime":"00:00@23:59","name":"许昌上嘉-桃园站商户","phone":"17841122019","bizId":"417442792116510720","bizName":"许昌上嘉-桃园站商户","longitude":113.96320231406871,"latitude":22.5543893344208,"province":"广东省","city":"深圳市","district":"南山区","address":"许昌上嘉-桃园站商户","createDate":"2022-07-05 18:06:38","lastUpdateDate":null,"mediaRelationships":[{"id":"417443148456189952","targetId":"417443148435218432","mediaId":"417443134401077248","priority":0,"targetType":"OUTLET"}],"medias":[{"id":"417443134401077248","type":"IMAGE","url":"https://aihuandian-charging-console.oss-cn-shenzhen.aliyuncs.com/product/20220705/c9dce5ac3d5e47b79c08b841448cccfa.jpg"}]},{"id":"417443771352276992","status":1,"top":0,"shopTime":"00:00@23:59","name":"北棠 -科技园站商户","phone":"17841122019","bizId":"417443355352817664","bizName":"北棠 -科技园站商户","longitude":113.96320231406871,"latitude":22.5543893344208,"province":"广东省","city":"深圳市","district":"南山区","address":"北棠 -科技园站商户","createDate":"2022-07-05 18:09:06","lastUpdateDate":null,"mediaRelationships":[{"id":"417443771373248512","targetId":"417443771352276992","mediaId":"417443759784386560","priority":0,"targetType":"OUTLET"}],"medias":[{"id":"417443759784386560","type":"IMAGE","url":"https://aihuandian-charging-console.oss-cn-shenzhen.aliyuncs.com/product/20220705/04b9bfea205e4be1ae2693eea6013c8f.jpg"}]},{"id":"417678833029144576","status":1,"top":0,"shopTime":"00:00@23:59","name":"顺丰速运-深圳区","phone":"13822722740","bizId":"417678321030455296","bizName":"顺丰速运-深圳区","longitude":113.96320231406871,"latitude":22.5543893344208,"province":"广东省","city":"深圳市","district":"全部","address":"福田","createDate":"2022-07-06 09:43:09","lastUpdateDate":null,"mediaRelationships":[{"id":"417678833050116096","targetId":"417678833029144576","mediaId":"417678830982324224","priority":0,"targetType":"OUTLET"}],"medias":[{"id":"417678830982324224","type":"IMAGE","url":"https://aihuandian-charging-console.oss-cn-shenzhen.aliyuncs.com/product/20220706/f7a4035788b6432f823dc5c34c7afbe6.jpeg"}]},{"id":"417680738597920768","status":1,"top":0,"shopTime":"00:00@23:59","name":"顺丰莲塘门店","phone":"13822722741","bizId":"417680295427760128","bizName":"顺丰-深圳-莲塘营业点","longitude":113.96320231406871,"latitude":22.5543893344208,"province":"广东省","city":"深圳市","district":"罗湖区","address":"莲塘营业点","createDate":"2022-07-06 09:50:44","lastUpdateDate":null,"mediaRelationships":[{"id":"417680738618892288","targetId":"417680738597920768","mediaId":"417680729475309568","priority":0,"targetType":"OUTLET"}],"medias":[{"id":"417680729475309568","type":"IMAGE","url":"https://aihuandian-charging-console.oss-cn-shenzhen.aliyuncs.com/product/20220706/029fe5b95e7247db9a9460a0de31e60e.jpeg"}]},{"id":"417752756081057792","status":1,"top":0,"shopTime":"00:00@23:59","name":"重庆门店","phone":"18086417888","bizId":"417750262768656384","bizName":"重庆-李鑫","longitude":113.96320231406871,"latitude":22.5543893344208,"province":"重庆市","city":"市辖区","district":"全部","address":"重庆","createDate":"2022-07-06 14:36:54","lastUpdateDate":null,"mediaRelationships":[{"id":"417752756102029312","targetId":"417752756081057792","mediaId":"417752750926258176","priority":0,"targetType":"OUTLET"}],"medias":[{"id":"417752750926258176","type":"IMAGE","url":"https://aihuandian-charging-console.oss-cn-shenzhen.aliyuncs.com/product/20220706/3a15cb4bcbad4ec6876644c3ae805cac.jpeg"}]},{"id":"418067981121507328","status":1,"top":0,"shopTime":"00:00@23:59","name":"北棠- 西丽站","phone":"18948717756","bizId":"418067465058537472","bizName":"北棠- 西丽站","longitude":113.96320231406871,"latitude":22.5543893344208,"province":"广东省","city":"深圳市","district":"南山区","address":"北棠- 西丽站","createDate":"2022-07-07 11:29:29","lastUpdateDate":null,"mediaRelationships":[{"id":"418067981150867456","targetId":"418067981121507328","mediaId":"418067976142868480","priority":0,"targetType":"OUTLET"}],"medias":[{"id":"418067976142868480","type":"IMAGE","url":"https://aihuandian-charging-console.oss-cn-shenzhen.aliyuncs.com/product/20220707/4692e142f6cc4ef7b9aa666d351994e0.jpeg"}]},{"id":"418074414237044736","status":1,"top":0,"shopTime":"00:00@23:59","name":"博亿- 海月站","phone":"17094132002","bizId":"418073991174377472","bizName":"博亿- 海月站","longitude":113.96320231406871,"latitude":22.5543893344208,"province":"广东省","city":"深圳市","district":"南山区","address":"博亿- 海月站","createDate":"2022-07-07 11:55:03","lastUpdateDate":null,"mediaRelationships":[{"id":"418074414262210560","targetId":"418074414237044736","mediaId":"418074410213593088","priority":0,"targetType":"OUTLET"}],"medias":[{"id":"418074410213593088","type":"IMAGE","url":"https://aihuandian-charging-console.oss-cn-shenzhen.aliyuncs.com/product/20220707/00a40a13e3124bd8ad20759f72892b3e.jpeg"}]},{"id":"418419286134378496","status":1,"top":0,"shopTime":"00:00@23:59","name":"龙华-上油松村","phone":"15994589290","bizId":"418416937513996288","bizName":"线上运营-何雨霜48·50","longitude":113.96320231406871,"latitude":22.5543893344208,"province":"广东省","city":"深圳市","district":"全部","address":"龙华-上油松村","createDate":"2022-07-08 10:45:27","lastUpdateDate":null,"mediaRelationships":[{"id":"418419286155350016","targetId":"418419286134378496","mediaId":"418419223262875648","priority":0,"targetType":"OUTLET"}],"medias":[{"id":"418419223262875648","type":"IMAGE","url":"https://aihuandian-charging-console.oss-cn-shenzhen.aliyuncs.com/product/20220708/4e8fd2f962f2498a924626e30f26096f.jpg"}]},{"id":"418480783117209600","status":1,"top":0,"shopTime":"00:00@23:59","name":"北棠车公庙3站(48·50)","phone":"17602090267","bizId":"418480153027891200","bizName":"北棠车公庙3站(48·50)","longitude":113.96320231406871,"latitude":22.5543893344208,"province":"广东省","city":"深圳市","district":"福田区","address":"北棠车公庙3站","createDate":"2022-07-08 14:49:49","lastUpdateDate":null,"mediaRelationships":[{"id":"418480783125598208","targetId":"418480783117209600","mediaId":"418480775885115392","priority":0,"targetType":"OUTLET"}],"medias":[{"id":"418480775885115392","type":"IMAGE","url":"https://aihuandian-charging-console.oss-cn-shenzhen.aliyuncs.com/product/20220708/7d6552e576cf45b8bffdfec63eb14759.jpeg"}]},{"id":"418523575231139840","status":1,"top":0,"shopTime":"08:40@09:40","name":"曾林","phone":"15820493782","bizId":"418522729034502144","bizName":"曾林","longitude":113.96320231406871,"latitude":22.5543893344208,"province":"广东省","city":"深圳市","district":"龙华区","address":"上油松","createDate":"2022-07-08 17:39:51","lastUpdateDate":null,"mediaRelationships":[{"id":"418523575239528448","targetId":"418523575231139840","mediaId":"418523560122142720","priority":0,"targetType":"OUTLET"}],"medias":[{"id":"418523560122142720","type":"IMAGE","url":"https://aihuandian-charging-console.oss-cn-shenzhen.aliyuncs.com/product/20220708/fb36d8e9346c45ffb40ffce395aeb2b1.jpg"}]},{"id":"419159672403480576","status":1,"top":0,"shopTime":"00:00@00:00","name":"北棠车公庙2站","phone":"13723456641","bizId":"419159192365387776","bizName":"北棠车公庙2站","longitude":113.96320231406871,"latitude":22.5543893344208,"province":"广东省","city":"深圳市","district":"全部","address":"北棠车公庙2站","createDate":"2022-07-10 11:47:29","lastUpdateDate":null,"mediaRelationships":[{"id":"419159672407674880","targetId":"419159672403480576","mediaId":"419159663524139008","priority":0,"targetType":"OUTLET"}],"medias":[{"id":"419159663524139008","type":"IMAGE","url":"https://aihuandian-charging-console.oss-cn-shenzhen.aliyuncs.com/product/20220710/e83918684a18482082011ced4a969e1a.jpeg"}]},{"id":"419307037620850688","status":1,"top":0,"shopTime":"00:00@23:59","name":"北棠1站","phone":"13407810331","bizId":"418782251681468416","bizName":"北棠车公庙1站","longitude":113.96320231406871,"latitude":22.5543893344208,"province":"广东省","city":"深圳市","district":"南山区","address":"北棠1站","createDate":"2022-07-10 21:33:03","lastUpdateDate":null,"mediaRelationships":[{"id":"419307037641822208","targetId":"419307037620850688","mediaId":"419306988737351680","priority":0,"targetType":"OUTLET"}],"medias":[{"id":"419306988737351680","type":"IMAGE","url":"https://aihuandian-charging-console.oss-cn-shenzhen.aliyuncs.com/product/20220710/6afd9ce29c8946dbaec740ce069b8f70.jpeg"}]},{"id":"419485106085253120","status":1,"top":0,"shopTime":"00:00@23:59","name":"壹城-科技园站","phone":"15219508079","bizId":"419484191633592320","bizName":"壹城-科技园站 ","longitude":113.96320231406871,"latitude":22.5543893344208,"province":"广东省","city":"深圳市","district":"南山区","address":"壹城-科技园站","createDate":"2022-07-11 09:20:38","lastUpdateDate":null,"mediaRelationships":[{"id":"419485106089447424","targetId":"419485106085253120","mediaId":"419485101446352896","priority":0,"targetType":"OUTLET"}],"medias":[{"id":"419485101446352896","type":"IMAGE","url":"https://aihuandian-charging-console.oss-cn-shenzhen.aliyuncs.com/product/20220711/48a439a4168543bf9ba75b396fc9258d.jpeg"}]},{"id":"420298839656132608","status":1,"top":0,"shopTime":"00:00@23:59","name":"摩登-科技园站","phone":"17363681427","bizId":"420298028540653568","bizName":"摩登-科技园站","longitude":113.96320231406871,"latitude":22.5543893344208,"province":"广东省","city":"深圳市","district":"南山区","address":"园西工业区","createDate":"2022-07-13 15:14:07","lastUpdateDate":null,"mediaRelationships":[{"id":"420298839681298432","targetId":"420298839656132608","mediaId":"420298823514419200","priority":0,"targetType":"OUTLET"}],"medias":[{"id":"420298823514419200","type":"IMAGE","url":"https://aihuandian-charging-console.oss-cn-shenzhen.aliyuncs.com/product/20220713/ad8e6c3836ac4b71915a9211a6186d0f.jpeg"}]},{"id":"420689192104128512","status":1,"top":0,"shopTime":"00:00@23:59","name":"线上运营部-卫50","phone":"13610301136","bizId":"420688766405406720","bizName":"线上运营部-卫50","longitude":113.96320231406871,"latitude":22.5543893344208,"province":"广东省","city":"深圳市","district":"全部","address":"线上运营部-卫50","createDate":"2022-07-14 17:05:15","lastUpdateDate":null,"mediaRelationships":[{"id":"420689192125100032","targetId":"420689192104128512","mediaId":"420689186181771264","priority":0,"targetType":"OUTLET"}],"medias":[{"id":"420689186181771264","type":"IMAGE","url":"https://aihuandian-charging-console.oss-cn-shenzhen.aliyuncs.com/product/20220714/fefc4d79858c492e9d247256494d3060.jpeg"}]},{"id":"420689427261976576","status":1,"top":0,"shopTime":"08:40@09:40","name":"线上运营部-30","phone":"13610301136","bizId":"420688059308666880","bizName":"线上运营部-卫30","longitude":113.96320231406871,"latitude":22.5543893344208,"province":"广东省","city":"深圳市","district":"全部","address":"线上运营部-30","createDate":"2022-07-14 17:06:11","lastUpdateDate":null,"mediaRelationships":[{"id":"420689427291336704","targetId":"420689427261976576","mediaId":"420689421828321280","priority":0,"targetType":"OUTLET"}],"medias":[{"id":"420689421828321280","type":"IMAGE","url":"https://aihuandian-charging-console.oss-cn-shenzhen.aliyuncs.com/product/20220714/59968012b792470fb936adb4edf73bc7.jpeg"}]},{"id":"420942132867985408","status":1,"top":0,"shopTime":"00:00@23:59","name":"线上运营部-48·30","phone":"15994589290","bizId":"420940594606993408","bizName":"线上运营部-48·30","longitude":113.96320231406871,"latitude":22.5543893344208,"province":"广东省","city":"深圳市","district":"全部","address":"线上运营部-48·30","createDate":"2022-07-15 09:50:21","lastUpdateDate":null,"mediaRelationships":[{"id":"420942132876374016","targetId":"420942132867985408","mediaId":"420942111498006528","priority":0,"targetType":"OUTLET"}],"medias":[{"id":"420942111498006528","type":"IMAGE","url":"https://aihuandian-charging-console.oss-cn-shenzhen.aliyuncs.com/product/20220715/06f66e9d74954d04b70d20c0b351b4bf.jpg"}]},{"id":"421428305203720192","status":1,"top":0,"shopTime":"00:00@23:59","name":"云星出行（自费商户）","phone":"13726264315","bizId":"421424979904983040","bizName":"云星出行（自费商户）","longitude":113.96320231406871,"latitude":22.5543893344208,"province":"广东省","city":"深圳市","district":"宝安区","address":"宝安区流塘新村","createDate":"2022-07-16 18:02:13","lastUpdateDate":null,"mediaRelationships":[{"id":"421428305220497408","targetId":"421428305203720192","mediaId":"421428276080635904","priority":0,"targetType":"OUTLET"}],"medias":[{"id":"421428276080635904","type":"IMAGE","url":"https://aihuandian-charging-console.oss-cn-shenzhen.aliyuncs.com/product/20220716/48c23c1a6cf9423d89470bdea1853b5c.jpg"}]},{"id":"422130745519534080","status":1,"top":0,"shopTime":"00:00@23:59","name":"森成-桃园站","phone":"13924640914","bizId":"422128334023389184","bizName":"森成-桃园站","longitude":113.96320231406871,"latitude":22.5543893344208,"province":"广东省","city":"深圳市","district":"南山区","address":"森成-桃园站","createDate":"2022-07-18 16:33:28","lastUpdateDate":null,"mediaRelationships":[{"id":"422130745536311296","targetId":"422130745519534080","mediaId":"422130730361319424","priority":0,"targetType":"OUTLET"}],"medias":[{"id":"422130730361319424","type":"IMAGE","url":"https://aihuandian-charging-console.oss-cn-shenzhen.aliyuncs.com/product/20220718/50673532d3bc41238ce308198de86b9a.jpg"}]},{"id":"422143780061605888","status":1,"top":0,"shopTime":"00:00@23:59","name":"龙华试点-龙华2","phone":"13168099811","bizId":"422143029258186752","bizName":"龙华试点-龙华2","longitude":113.96320231406871,"latitude":22.5543893344208,"province":"广东省","city":"深圳市","district":"龙华区","address":"龙华试点-龙华2","createDate":"2022-07-18 17:25:16","lastUpdateDate":null,"mediaRelationships":[{"id":"422143780082577408","targetId":"422143780061605888","mediaId":"422143775672332288","priority":0,"targetType":"OUTLET"}],"medias":[{"id":"422143775672332288","type":"IMAGE","url":"https://aihuandian-charging-console.oss-cn-shenzhen.aliyuncs.com/product/20220718/15d16cacdaed4b319cb9ce1c5bb2f3d8.jpeg"}]},{"id":"423186973885145088","status":1,"top":0,"shopTime":"08:40@09:40","name":"1","phone":"13111111111","bizId":null,"bizName":null,"longitude":113.96320231406871,"latitude":22.5543893344208,"province":"广东省","city":"深圳市","district":"南山区","address":"南山","createDate":"2022-07-21 14:30:32","lastUpdateDate":null,"mediaRelationships":[{"id":"423186973927088128","targetId":"423186973885145088","mediaId":"423186931212296192","priority":0,"targetType":"OUTLET"}],"medias":[{"id":"423186931212296192","type":"IMAGE","url":"https://aihuandian-charging-console.oss-cn-shenzhen.aliyuncs.com/product/20220721/c797f798f8d549dc88a7f49e59844769.jpg"}]}],"ok":true}