{"suc":true,"data":{"deviceList":[{"cabinetSn":"H8ANBCB5L6000069","distance":"2058.00","name":"桃苑公寓","address":"广东省深圳市南山区南头街道一品锅(南山店)桃苑公寓","batteryCount":0,"lat":22.528539,"lng":113.924013,"isOnline":true},{"cabinetSn":"ACAWDHA9L750A101","distance":"1558.80","name":"南山区朗景园","address":"广东省深圳市南山区粤海街道朗景园","batteryCount":2,"lat":22.541019,"lng":113.950617,"isOnline":true},{"cabinetSn":"H8ANBCB5L6000020","distance":"2067.10","name":"南山区桃苑公寓","address":"广东省深圳市南山区南头街道一品锅(南山店)桃苑公寓","batteryCount":3,"lat":22.528097,"lng":113.923927,"isOnline":false},{"cabinetSn":"ACAWDEA9L750A010","distance":"3105.50","name":"御海新苑","address":"广东省深圳市南山区南头街道御海新苑","batteryCount":3,"lat":22.53053,"lng":113.913913,"isOnline":true},{"cabinetSn":"H8ANBCB5L600062C","distance":"2064.70","name":"南山区秀林新居\t","address":"广东省深圳市南山区南头街道英语进行时(南头街)秀林新居","batteryCount":5,"lat":22.535442,"lng":113.925447,"isOnline":true},{"cabinetSn":"ACAWDEA9L750A048","distance":"4058.80","name":"南山区四海公寓站点","address":"广东省深圳市南山区蛇口街道四海公寓四海文化广场","batteryCount":5,"lat":22.493864,"lng":113.931398,"isOnline":true},{"cabinetSn":"ACAWDEA9L750A029","distance":"2547.40","name":"南山区鹏兴电动车行","address":"广东省深圳市南山区南山街道22度家私房菜富嘉名阁","batteryCount":6,"lat":22.524622,"lng":113.919595,"isOnline":true},{"cabinetSn":"H8ANBCB5L600092C","distance":"2887.00","name":"南山区马家龙站点","address":"广东省深圳市南山区南头街道建安大院","batteryCount":4,"lat":22.546495,"lng":113.923905,"isOnline":true},{"cabinetSn":"H8ANBCB5L600108C","distance":"2068.70","name":"南山区秀林新居","address":"广东省深圳市南山区南头街道秀林新居","batteryCount":6,"lat":22.53565,"lng":113.925499,"isOnline":true},{"cabinetSn":"ACAWDEA9L750A019","distance":"3501.20","name":"南山区心语雅园","address":"广东省深圳市南山区南山街道心语雅园","batteryCount":6,"lat":22.516851,"lng":113.912361,"isOnline":true},{"cabinetSn":"ACAWDEA9L750A046","distance":"1592.90","name":"南山麻雀岭彩楼公寓","address":"广东省深圳市南山区粤海街道帝翠阁彩楼公寓","batteryCount":7,"lat":22.54157,"lng":113.93795,"isOnline":true},{"cabinetSn":"ACAWDEA9L750A037","distance":"2832.50","name":"南油第二工业区203栋","address":"广东省深圳市南山区南山街道商服大厦","batteryCount":7,"lat":22.5109,"lng":113.92404,"isOnline":true},{"cabinetSn":"ACAWDEA9L750A027","distance":"2400.40","name":"南油生活区B区35栋","address":"广东省深圳市南山区粤海街道南油(B区)南油B区","batteryCount":8,"lat":22.511017,"lng":113.930227,"isOnline":true},{"cabinetSn":"ACAWDEA9L750A024","distance":"2388.10","name":"·南山区南油B区35栋","address":"广东省深圳市南山区粤海街道南油(B区)南油B区","batteryCount":8,"lat":22.511261,"lng":113.930071,"isOnline":true},{"cabinetSn":"ACAWDEA9L750A006","distance":"2414.20","name":"南景苑大厦","address":"广东省深圳市南山区南头街道常兴路129-5号南景苑大厦","batteryCount":8,"lat":22.531881,"lng":113.920852,"isOnline":true},{"cabinetSn":"ACAWDEA9L750A003","distance":"2953.30","name":"南油文化广场","address":"广东省深圳市南山区粤海街道南商路4-6号南油文化广场","batteryCount":7,"lat":22.506069,"lng":113.928536,"isOnline":true},{"cabinetSn":"H8ANBCB5L600124C","distance":"2880.80","name":"南山区马家龙站点","address":"广东省深圳市南山区南头街道玉泉路136-140号建安大院","batteryCount":7,"lat":22.54647,"lng":113.923963,"isOnline":true},{"cabinetSn":"ACAWDEA9L750A042","distance":"2958.50","name":"南山区南油文化广场\t","address":"广东省深圳市南山区粤海街道南商路4-6号南油文化广场","batteryCount":8,"lat":22.506019,"lng":113.928526,"isOnline":true},{"cabinetSn":"ACAWDEA9L750A028","distance":"2996.80","name":"南油第三工业区 ","address":"广东省深圳市南山区南山街道蜀味居餐馆南油第三工业区","batteryCount":9,"lat":22.514367,"lng":113.919162,"isOnline":true},{"cabinetSn":"ACAWDEA9L750A013","distance":"2428.50","name":"南山区南景苑大厦","address":"广东省深圳市南山区南头街道常兴路129-2号南景苑大厦","batteryCount":9,"lat":22.5317,"lng":113.92068,"isOnline":true},{"cabinetSn":"ACAWDHA9L750A130","distance":"2337.70","name":"南山大道1153号天源大厦","address":"广东省深圳市南山区南山街道天源大厦","batteryCount":8,"lat":22.521915,"lng":113.922407,"isOnline":true},{"cabinetSn":"ACAWDEA9L750A008","distance":"3820.60","name":"心语家园","address":"广东省深圳市南山区南山街道新快保汽车修护中心心语家园","batteryCount":10,"lat":22.51446,"lng":113.910079,"isOnline":true},{"cabinetSn":"ACAWDHA9L750A139","distance":"1614.60","name":"南山区彩楼公寓","address":"广东省深圳市南山区粤海街道帝翠阁彩楼公寓","batteryCount":10,"lat":22.541778,"lng":113.93794,"isOnline":true},{"cabinetSn":"ACAWDHA9L750A072","distance":"2601.30","name":"南山区彩虹居","address":"广东省深圳市南山区南头街道彩虹居彩虹居(大新路)","batteryCount":10,"lat":22.549089,"lng":113.932249,"isOnline":true},{"cabinetSn":"ACAWDHA9L750A091","distance":"3465.40","name":"南山区汇宾广场","address":"广东省深圳市南山区南山街道汇宾广场汇宾广场小区","batteryCount":11,"lat":22.509309,"lng":113.917416,"isOnline":true},{"cabinetSn":"ACAWDEA9L750A011","distance":"2978.40","name":"永安公寓","address":"广东省深圳市南山区南山街道粤海路南油第二工业区","batteryCount":10,"lat":22.510389,"lng":113.922617,"isOnline":true},{"cabinetSn":"ACAWDHA9L750A093","distance":"3461.10","name":"南山区汇宾广场","address":"广东省深圳市南山区南山街道汇宾广场汇宾广场小区","batteryCount":11,"lat":22.509269,"lng":113.917502,"isOnline":true},{"cabinetSn":"ACAWDHA9L750A143","distance":"2221.80","name":"南山区缤纷年华","address":"广东省深圳市南山区南头街道缤纷年华","batteryCount":11,"lat":22.542139,"lng":113.928346,"isOnline":true},{"cabinetSn":"ACAWDEA9L750A022","distance":"2247.90","name":"南山区缤纷年华","address":"广东省深圳市南山区南头街道缤纷年华缤纷商业中心","batteryCount":11,"lat":22.542559,"lng":113.928432,"isOnline":true},{"cabinetSn":"ACAWDHA9L750A138","distance":"1553.20","name":"南山区朗景园","address":"广东省深圳市南山区粤海街道朗景园","batteryCount":8,"lat":22.540989,"lng":113.950558,"isOnline":true},{"cabinetSn":"ACAWDEA9L750A036","distance":"2977.80","name":"南山区南油文化广场","address":"广东省深圳市南山区粤海街道南油文化广场","batteryCount":11,"lat":22.505989,"lng":113.92823,"isOnline":true}]}}